,시도,점포명,주소,전화번호,위도,경도
0,서울,역삼아레나빌딩,서울특별시 강남구 언주로 425 (역삼동),1522-3232,37.501087,127.043069
1,서울,논현역사거리,서울특별시 강남구 강남대로 538 (논현동),1522-3232,37.510178,127.022223
2,서울,신사역성일빌딩,서울특별시 강남구 강남대로 584 (논현동),1522-3232,37.5139309,127.0206057
3,서울,국기원사거리,서울특별시 강남구 테헤란로 125 (역삼동),1522-3232,37.499517,127.031495
4,서울,대치재경빌딩,서울특별시 강남구 남부순환로 2947 (대치동),1522-3232,37.494668,127.062583
5,서울,봉은사역,서울특별시 강남구 봉은사로 619 (삼성동),1522-3232,37.515000,127.063196
6,서울,압구정윤성빌딩,서울특별시 강남구 논현로 834 (신사동),1522-3232,37.5227934,127.0286009
7,서울,코엑스별마당,서울특별시 강남구 영동대로 513 (삼성동),1522-3232,37.510150,127.060275
8,서울,삼성역섬유센터R,서울특별시 강남구 테헤란로 518 (대치동),1522-3232,37.507750,127.060651
9,서울,압구정R,서울특별시 강남구 언주로 861 (신사동),1522-3232,37.5273669,127.033061
10,서울,수서역R,서울특별시 강남구 광평로 281 (수서동),1522-3232,37.48802242128887,127.10297991136235
11,서울,양재강남빌딩R,서울특별시 강남구 남부순환로 2621 (도곡동),1522-3232,37.485192,127.036685
12,서울,선릉동신빌딩R,서울특별시 강남구 테헤란로 409 (삼성동),1522-3232,37.505321,127.050409
13,서울,봉은사로선정릉,서울특별시 강남구 봉은사로 446 (삼성동),1522-3232,37.51131683405367,127.04846338902248
14,서울,강남오거리,서울특별시 강남구 봉은사로2길 39 (역삼동),1522-3232,37.502117,127.026672
15,서울,스타필드코엑스몰R,서울특별시 강남구 영동대로 513 (삼성동) 코엑스 A106호,1522-3232,37.50999,127.061455
16,서울,강남구청정문,서울특별시 강남구 학동로 419 (청담동),1522-3232,37.518181,127.045995
17,서울,도곡공원,서울특별시 강남구 도곡로 205 (역삼동),1522-3232,37.492805,127.041309
18,서울,강남R,서울특별시 강남구 강남대로 390 (역삼동),1522-3232,37.497711,127.028439
19,서울,대치은마사거리,서울특별시 강남구 도곡로 457 (대치동),1522-3232,37.498973,127.060172
20,서울,청담영동대로,서울특별시 강남구 영동대로 720 (청담동),1522-3232,37.522156,127.056449
21,서울,압구정,서울특별시 강남구 압구정로30길 17 (신사동),1522-3232,37.526283,127.02956
22,서울,신사가로수,서울특별시 강남구 가로수길 59,1522-3232,37.521933,127.022521
23,서울,청담스타R,서울특별시 강남구 도산대로57길 24 (청담동),1522-3232,37.525216,127.041827
24,서울,강남우성,서울특별시 강남구 강남대로 328 (역삼동),1522-3232,37.492396,127.03091
25,서울,학동사거리,서울특별시 강남구 도산대로 328 (논현동),1522-3232,37.52236449999999,127.03795430000002
26,서울,대치사거리,서울특별시 강남구 삼성로 402 (대치동),1522-3232,37.503331,127.058817
27,서울,포스코사거리,서울특별시 강남구 테헤란로 505 (삼성동) 화진빌딩,1522-3232,37.5075307,127.05742710000004
28,서울,을지병원사거리,"서울특별시 강남구 논현로 752 (논현동,구산빌딩)",1522-3232,37.5191632,127.0286446
29,서울,신사역,서울특별시 강남구 도산대로 108 (논현동) 렉스타워,1522-3232,37.5162021,127.0207428
30,서울,도곡역,서울특별시 강남구 남부순환로 2909 (대치동),1522-3232,37.492167,127.057398
31,서울,서울세관사거리,서울특별시 강남구 언주로 650 (논현동) 한국건설기술인협회,1522-3232,37.514887,127.035653
32,서울,청담사거리,서울특별시 강남구 도산대로 458 (청담동) 리츠타워,1522-3232,37.5236351,127.04686509999999
33,서울,한티역,"서울특별시 강남구 도곡로 408, 디마크빌딩 101호 (대치동)",1522-3232,37.496801,127.055055
34,서울,역삼초교사거리,서울특별시 강남구 역삼로 123 (역삼동),1522-3232,37.49416922110828,127.03317791475052
35,서울,코엑스몰,서울특별시 강남구 영동대로 513 (삼성동) O103호,1522-3232,37.513715,127.059245
36,서울,가로수길,"서울특별시 강남구 논현로175길 94, 1~2층 (신사동)",1522-3232,37.5231593,127.02162499999997
37,서울,역삼대로,"서울특별시 강남구 테헤란로 211, 한국고등교육재단빌딩 1층 (역삼동)",1522-3232,37.501623,127.039375
38,서울,역삼포스코,"서울특별시 강남구 테헤란로 134, P&S TOWER (역삼동)",1522-3232,37.499721,127.033582
39,서울,강남대로,"서울특별시 강남구 강남대로 456, 한석타워 2층 1-2호 (역삼동)",1522-3232,37.50314,127.025546
40,서울,청담,"서울특별시 강남구 도산대로 532, 인희빌딩 1층 (청담동)",1522-3232,37.5243631,127.05155990000003
41,서울,삼성도심공항,서울특별시 강남구 테헤란로87길 33 (삼성동),1522-3232,37.5097863,127.05791339999996
42,서울,삼성교,"서울특별시 강남구 영동대로86길 12, 동남유화빌딩 1층",1522-3232,37.507794,127.06517
43,서울,학동역,서울특별시 강남구 논현로 704 (논현동),1522-3232,37.51464884,127.0307302
44,서울,대치,서울특별시 강남구 도곡로 511 (대치동),1522-3232,37.49966175,127.0622171
45,서울,신세계푸드마켓도곡,"서울특별시 강남구 언주로30길 57, 타워팰리스Ⅱ F 지하1층 (도곡동)",1522-3232,37.490102006982106,127.05507020231974
46,서울,삼성,"서울특별시 강남구 테헤란로 443, 애플트리타워 1층 (삼성동)",1522-3232,37.50689645929321,127.05571872453659
47,서울,선릉세화빌딩,서울특별시 강남구 테헤란로64길 18 (대치동) 1층,1522-3232,37.50377562,127.051196
48,서울,압구정역,"서울특별시 강남구 압구정로 170, 관영빌딩 1층 지하1층 (신사동)",1522-3232,37.52674095,127.0281105
49,서울,압구정로,서울특별시 강남구 압구정로42길 32 (신사동),1522-3232,37.52680046,127.0347174
50,서울,구역삼사거리,서울특별시 강남구 논현로 401 (역삼동),1522-3232,37.495890648099504,127.03890917851653
51,서울,큰길타워,"서울특별시 강남구 테헤란로 223, 큰길타워빌딩 (역삼동)",1522-3232,37.50236693,127.0407
52,서울,강남구청역,"서울특별시 강남구 선릉로 669, 웰빙센터 1층 (논현동)",1522-3232,37.5165849,127.04124330000002
53,서울,대치역,서울특별시 강남구 남부순환로 2936 (대치동) 107호,1522-3232,37.493554,127.061874
54,서울,포이,서울특별시 강남구 논현로 88 (개포동),1522-3232,37.47781106,127.0451411
55,서울,아크플레이스,서울특별시 강남구 테헤란로 142 (역삼동),1522-3232,37.49971982,127.0349084
56,서울,학여울역,서울특별시 강남구 영동대로 215 (대치동),1522-3232,37.49803646,127.0684943
57,서울,선정릉역,서울특별시 강남구 봉은사로 407 (삼성동) 에프오빌딩,1522-3232,37.51075489999999,127.04455970000003
58,서울,삼성현대힐,서울특별시 강남구 삼성로 605 (삼성동),1522-3232,37.51350444312708,127.05273753314826
59,서울,GS타워,서울특별시 강남구 논현로 508 (역삼동),1522-3232,37.5018592,127.03727759999992
60,서울,압구정미소,서울특별시 강남구 논현로 841 (신사동),1522-3232,37.523912710310014,127.02807214378778
61,서울,선릉역,"서울특별시 강남구 테헤란로 334, LG화재 빌딩 (역삼동)",1522-3232,37.50393894,127.0485135
62,서울,코엑스사거리,서울특별시 강남구 영동대로 616 (삼성동),1522-3232,37.515351,127.060109
63,서울,역삼럭키,서울특별시 강남구 도곡로 183 (역삼동),1522-3232,37.492209,127.039389
64,서울,신압구정,서울특별시 강남구 언주로174길 29 (신사동),1522-3232,37.528115,127.036441
65,서울,아크로힐스논현,"서울특별시 강남구 봉은사로 304, 금강빌딩 1-2층 (역삼동)",1522-3232,37.509013311862645,127.0403523996554
66,서울,강남비젼타워,"서울특별시 강남구 테헤란로2길 27, 1층 101호 (역삼동)",1522-3232,37.4964557,127.02968850000002
67,서울,압구정로데오역,"서울특별시 강남구 선릉로 836, 삼원빌딩 1,2층 (청담동)",1522-3232,37.526549,127.040437
68,서울,르네상스사거리,서울특별시 강남구 테헤란로 306 (역삼동),1522-3232,37.502721,127.044308
69,서울,포스코,"서울특별시 강남구 삼성로86길 7, 1층 (대치동)",1522-3232,37.50576457783876,127.05804488086114
70,서울,선릉로,"서울특별시 강남구 선릉로93길 22, 대흥빌딩 1층 (역삼동)",1522-3232,37.50498118534617,127.0468080752464
71,서울,논현힐탑,서울특별시 강남구 논현로 648 (논현동),1522-3232,37.511685,127.032187
72,서울,도산가로수길,"서울특별시 강남구 도산대로 134, 2층 (논현동)",1522-3232,37.51736229999999,127.02329570000006
73,서울,매봉역,서울특별시 강남구 남부순환로 2736 (도곡동),1522-3232,37.4859095,127.0452879
74,서울,대치한티,서울특별시 강남구 선릉로 324 (대치동),1522-3232,37.4984818,127.052066
75,서울,개포동,서울특별시 강남구 선릉로 34 (개포동),1522-3232,37.4828551359882,127.0607152444621
76,서울,수서역사거리,서울특별시 강남구 광평로 280 (수서동),1522-3232,37.487400776036274,127.10292252273775
77,서울,코엑스아셈타워,서울특별시 강남구 영동대로 517 (삼성동),1522-3232,37.513019,127.059838
78,서울,센터필드R,서울특별시 강남구 테헤란로 231 (역삼동),1522-3232,37.50369465391196,127.04172081609172
79,서울,도산사거리,서울특별시 강남구 언주로 727 (논현동),1522-3232,37.51966,127.0341
80,서울,강남세곡,서울특별시 강남구 헌릉로569길 18 (세곡동),1522-3232,37.467274319644,127.099929726
81,서울,대치삼성,서울특별시 강남구 영동대로 237 (대치동),1522-3232,37.500313,127.066961
82,서울,언주역,서울특별시 강남구 봉은사로 222 (역삼동),1522-3232,37.507975,127.036478
83,서울,강남역신분당역사,서울특별시 강남구 강남대로 396 (역삼동),1522-3232,37.4970572543978,127.028180714381
84,서울,삼성역,서울특별시 강남구 테헤란로 620 (대치동),1522-3232,37.509206962541256,127.06560851480327
85,서울,테헤란로아남타워,서울특별시 강남구 테헤란로 311 (역삼동),1522-3232,37.50383,127.04487
86,서울,강남논현,서울특별시 강남구 강남대로 512 (논현동),1522-3232,37.5078978596254,127.023338614644
87,서울,삼성동,서울특별시 강남구 영동대로96길 12 (삼성동),1522-3232,37.510843366121534,127.06363342044263
88,서울,압구정역사3번출구,서울특별시 강남구 논현로 854 (신사동),1522-3232,37.52575281715033,127.02886190444627
89,서울,청담역,서울특별시 강남구 삼성로 709 (청담동),1522-3232,37.5194407323478,127.049552661542
90,서울,압구정현대아파트,서울특별시 강남구 논현로175길 38 (신사동),1522-3232,37.52521971236768,127.0256601858147
91,서울,강남청담빌딩,서울특별시 강남구 선릉로 704 (청담동),1522-3232,37.517887,127.041375
92,서울,역삼이마트,서울특별시 강남구 역삼로 310 (역삼동),1522-3232,37.499367,127.048425
93,서울,케이스퀘어강남,서울특별시 강남구 강남대로94길 10 (역삼동),1522-3232,37.4991914625768,127.028204360257
94,서울,강남세곡DT,서울특별시 강남구 헌릉로 727 (세곡동),1522-3232,37.466993809277,127.118330806807
95,서울,미아뉴타운,서울특별시 강북구 삼양로 161 (미아동),1522-3232,37.618319,127.021072
96,서울,강북구청사거리,서울특별시 강북구 도봉로 365 (수유동),1522-3232,37.639987861152015,127.0274331199793
97,서울,미아사거리역,서울특별시 강북구 도봉로 32 (미아동),1522-3232,37.611831247629375,127.03058552434908
98,서울,수유역,서울특별시 강북구 도봉로 342 (번동),1522-3232,37.6380167,127.02613500000007
99,서울,미아역,서울특별시 강북구 도봉로 196 (미아동),1522-3232,37.626148,127.026578
100,서울,수유역5번출구,"서울특별시 강북구 도봉로 315 (수유동, 에피소드 수유 838)",1522-3232,37.636722675028174,127.02332208832509
101,서울,파라스파라서울,서울특별시 강북구 삼양로 689 (우이동) 파라스파라서울 지하1층,1522-3232,37.66419549576315,127.01040728594249
102,서울,발산역사거리,서울특별시 강서구 공항대로 248 (마곡동),1522-3232,37.558509,126.835096
103,서울,마곡역,서울특별시 강서구 공항대로 168 (마곡동),1522-3232,37.559611,126.826298
104,서울,우장산역,서울특별시 강서구 강서로 267 (내발산동),1522-3232,37.549510038803994,126.83606164803061
105,서울,마곡사이언스타워R,서울특별시 강서구 마곡동로 62 (마곡동),1522-3232,37.5605261,126.833887
106,서울,방화DT,서울특별시 강서구 방화대로 375 (방화동),1522-3232,37.574456834773024,126.81648812379821
107,서울,마곡나루역,서울특별시 강서구 마곡중앙로 161-17 (마곡동),1522-3232,37.56813,126.82614
108,서울,마곡GMG,"서울특별시 강서구 마곡중앙6로 16 (마곡동) 117,118,119,120호",1522-3232,37.560487,126.829667
109,서울,가양역,서울특별시 강서구 양천로 476 (등촌동),1522-3232,37.561640,126.853327
110,서울,화곡DT,서울특별시 강서구 등촌로 57 (화곡동),1522-3232,37.5350107501795,126.86318804786
111,서울,양천향교역,서울특별시 강서구 강서로 463 (마곡동),1522-3232,37.566964,126.840731
112,서울,화곡동,서울특별시 강서구 화곡로 142(화곡동),1522-3232,37.540619019726435,126.83738800870792
113,서울,등촌,서울특별시 강서구 공항대로 329 (등촌동),1522-3232,37.5582043,126.84433919999992
114,서울,염창역,서울특별시 강서구 공항대로 627 (염창동),1522-3232,37.547359,126.874436
115,서울,발산역,서울특별시 강서구 강서로 388 (등촌동) 그랜드마트,1522-3232,37.560301448004914,126.83913349547197
116,서울,까치산역,서울특별시 강서구 강서로13길 3 (화곡동),1522-3232,37.5323235082489,126.84612332664443
117,서울,염창대로,"서울특별시 강서구 양천로 744 (염창동), 101호",1522-3232,37.5485479128966,126.878259347206
118,서울,발산역5번출구,"서울특별시 강서구 강서로52길 43 (내발산동, DH647), 1층 일부",1522-3232,37.5579224739977,126.84054030692
119,서울,화곡역8번출구,"서울특별시 강서구 강서로 179 (화곡동), 1층 일부",1522-3232,37.54227920628,126.839299954553
120,서울,강서우장산,"서울특별시 강서구 강서로 231 (화곡동, 우장산역 해링턴 타워), 116/117/118/119/120호",1522-3232,37.54661114997271,126.83611326062484
121,서울,등촌대로,"서울특별시 강서구 공항대로 543 (염창동, 센터스퀘어)",1522-3232,37.5504921817371,126.8665095756118
122,서울,가양역사거리,"서울특별시 강서구 화곡로 416 (등촌동) 가양더스카이벨리5차 지식산업센터 101, 102, 114,~117호",1522-3232,37.56007,126.855372
123,서울,내발산,"서울특별시 강서구 강서로 323 (내발산동), 101/102호",1522-3232,37.55467,126.83672
124,서울,마곡웰튼,"서울특별시 강서구 마곡중앙5로 22 (마곡동), 104/105/106호",1522-3232,37.5671428910102,126.825315150636
125,서울,김포공항DT,서울특별시 강서구 개화동로 517 (방화동),1522-3232,37.56627942080141,126.8060664470359
126,서울,강서NC,서울특별시 강서구 강서로56길 17 (등촌동),1522-3232,37.560088,126.840534
127,서울,김포공항국제선,서울특별시 강서구 하늘길 38 (방화동),1522-3232,37.56604490355177,126.80050380500948
128,서울,마곡나루공원,서울특별시 강서구 마곡중앙5로 47 (마곡동),1522-3232,37.567007,126.822246
129,서울,송정역,"서울특별시 강서구 공항대로 38 (공항동), 1층 일부",1522-3232,37.56105570786667,126.81150987871888
130,서울,강서구청사거리,서울특별시 강서구 화곡로 350 (화곡동),1522-3232,37.5549266,126.8523133
131,서울,낙성대역,서울특별시 관악구 남부순환로 1908 (봉천동),1522-3232,37.477760129939064,126.96114261955485
132,서울,관악서울대입구R,서울특별시 관악구 관악로 158 (봉천동),1522-3232,37.47932480888598,126.95270199623682
133,서울,신림DT,서울특별시 관악구 남부순환로 1419 (신림동),1522-3232,37.480935,126.908407
134,서울,서울대역,서울특별시 관악구 남부순환로 1817 (봉천동),1522-3232,37.48166265091104,126.9520164977362
135,서울,낙성대DT,서울특별시 관악구 남부순환로 1948 (봉천동),1522-3232,37.476243169019526,126.96511724631266
136,서울,사당,서울특별시 관악구 남부순환로 2082-25,1522-3232,37.4760559,126.980928
137,서울,보라매대교,서울특별시 관악구 보라매로3길 23 (봉천동) 1층,1522-3232,37.491449,126.925432
138,서울,신림,서울특별시 관악구 신림로 355-1 (신림동),1522-3232,37.48609493,126.9291602
139,서울,신림타임스트림,서울특별시 관악구 신림로 330 타임스트림 1층,1522-3232,37.48407101920536,126.93025831103377
140,서울,서울대입구역,서울특별시 관악구 남부순환로 1812 (봉천동),1522-3232,37.481207389699065,126.95140060487287
141,서울,서울대입구역8번출구,서울특별시 관악구 남부순환로 1831 (봉천동),1522-3232,37.4812061,126.9536942
142,서울,봉천역,서울특별시 관악구 남부순환로 1730 (봉천동),1522-3232,37.4820375340064,126.942287792538
143,서울,봉천현대시장,"서울특별시 관악구 은천로 118 (봉천동), 1층 101~104호",1522-3232,37.48665266827689,126.94829614696478
144,서울,건국대,서울특별시 광진구 능동로 117 (화양동),1522-3232,37.5415592,127.0711244
145,서울,어린이대공원역,서울특별시 광진구 능동로 243 (군자동),1522-3232,37.551946,127.076404
146,서울,아차산역,서울특별시 광진구 천호대로 676 (구의동),1522-3232,37.55062116262961,127.09003207951664
147,서울,올림픽대교북단,서울특별시 광진구 광나루로 608 (구의동),1522-3232,37.541129,127.09524
148,서울,구의DT,서울특별시 광진구 광나루로 519 (구의동),1522-3232,37.54529838924125,127.0871967283424
149,서울,자양사거리,서울특별시 광진구 아차산로 355,1522-3232,37.5371158,127.0825821
150,서울,군자역,서울특별시 광진구 천호대로 548 (군자동) 중앙빌딩,1522-3232,37.557026068940765,127.07910984029934
151,서울,광나루,"서울특별시 광진구 아차산로 607, 1,2층 (광장동)",1522-3232,37.5473711178786,127.106048727555
152,서울,건대스타시티,서울특별시 광진구 아차산로 262 (자양동),1522-3232,37.538544,127.073009
153,서울,건대입구,서울특별시 광진구 능동로 107 (화양동),1522-3232,37.5406604,127.07072249999999
154,서울,구의역,서울특별시 광진구 아차산로 373 (구의동),1522-3232,37.53698,127.084015
155,서울,광장,서울특별시 광진구 아차산로 537-17 (광장동),1522-3232,37.54261257747251,127.09964053100874
156,서울,건국클래식,서울특별시 광진구 능동로 90 (자양동) 더 클래식500,1522-3232,37.538466,127.071271
157,서울,건대후문,서울특별시 광진구 능동로 172 (화양동),1522-3232,37.54603056145237,127.07381934747977
158,서울,중곡역,"서울특별시 광진구 능동로 400 (중곡동) 1층 108,109,110,111,112,118 6개호실",1522-3232,37.565057005115804,127.08445231025851
159,서울,자양이마트,서울특별시 광진구 아차산로 272 (자양동) 지하1층,1522-3232,37.537817,127.072597
160,서울,자양역,"서울특별시 광진구 능동로 18 (자양동, 이튼타워리버3차)",1522-3232,37.532684640479,127.067878503557
161,서울,화양삼거리,서울특별시 광진구 광나루로 374 (화양동),1522-3232,37.54774853077512,127.07126924540047
162,서울,군자사거리,서울특별시 광진구 천호대로 549 (중곡동) 1층,1522-3232,37.55769507399991,127.079087912222
163,서울,금천구청역,"서울특별시 금천구 시흥대로73길 67 (시흥동), 엠메디컬타워 1층",1522-3232,37.45588672536701,126.89568245942294
164,서울,가산에스케이,"서울특별시 금천구 가산디지털1로 171 (가산동), SK V1센터 1층",1522-3232,37.48082408602027,126.88100079322535
165,서울,독산사거리,서울특별시 금천구 시흥대로 426 (독산동),1522-3232,37.47158263368701,126.89860551804541
166,서울,금천시흥,서울특별시 금천구 시흥대로 164 (시흥동),1522-3232,37.44875938266414,126.90323875981919
167,서울,가산디지털단지역,"서울특별시 금천구 벚꽃로 298 (가산동), 대륭포스트타워 6차 1층",1522-3232,37.48135375445197,126.88358906045958
168,서울,금천독산,서울특별시 금천구 두산로 70 (독산동),1522-3232,37.46957081,126.89565779
169,서울,가산디지털,"서울특별시 금천구 가산디지털1로 168 (가산동), 우림라이온스밸리 B동 1층",1522-3232,37.479970085901,126.882507193785
170,서울,마리오아울렛,서울특별시 금천구 벚꽃로 266 마리오아울렛3관,1522-3232,37.47860691180926,126.88484825777416
171,서울,가산브이타워,"서울특별시 금천구 가산디지털1로 128 (가산동), V-TOWER 1층",1522-3232,37.47700409645337,126.88355058577785
172,서울,독산역,"서울특별시 금천구 가산디지털1로 16 (가산동), 107-2, 1층",1522-3232,37.46770966619833,126.88767404102677
173,서울,가산퍼블릭,"서울특별시 금천구 디지털로 178 (가산동), B동 F Park 1층",1522-3232,37.47574363470601,126.88684803652211
174,서울,가산현대아울렛,"서울특별시 금천구 디지털로10길 9 (가산동), 1층 일부",1522-3232,37.477680443,126.888840553
175,서울,가산케이에스,"서울특별시 금천구 벚꽃로36길 30 (가산동), 가산KS타워 1층",1522-3232,37.48089352069766,126.88515566597013
176,서울,가산어반워크,서울특별시 금천구 가산디지털2로 135 (가산동),1522-3232,37.4800231711237,126.878250987906
177,서울,월계역,"서울특별시 노원구 초안산로2라길26 월계동(104,105,106호)",1522-3232,37.6295,127.0574
178,서울,월계트레이더스,서울특별시 노원구 마들로3길 15 (월계동),1522-3232,37.62758407402858,127.06177585602872
179,서울,상계초교사거리,서울특별시 노원구 노원로 449 (상계동),1522-3232,37.656776,127.066442
180,서울,공릉DT,서울특별시 노원구 동일로 1015 (공릉동),1522-3232,37.6206884,127.0743116
181,서울,노원마들역,"서울특별시 노원구 노원로 569 (상계동, 임광아파트)",1522-3232,37.6610890700127,127.05801543641189
182,서울,공릉역,서울특별시 노원구 동일로 1081 (공릉동),1522-3232,37.626337,127.072252
183,서울,은행사거리,"서울특별시 노원구 중계로 217, 중흥빌딩 103,203호 (중계동)",1522-3232,37.6505261052442,127.07599353308129
184,서울,노원KT,"서울특별시 노원구 노해로 502, (주)KT 노원사옥 (상계동)",1522-3232,37.654562,127.063617
185,서울,광운대,서울특별시 노원구 석계로 104 (월계동),1522-3232,37.62317424708698,127.06080652927419
186,서울,중계역,"서울특별시 노원구 동일로 1339, 대한빌딩 (상계동)",1522-3232,37.64817,127.062244
187,서울,노원역,서울특별시 노원구 동일로 1413 (상계동) 1층,1522-3232,37.654751,127.060034
188,서울,월계이마트,서울특별시 노원구 마들로3길 15 (월계동),1522-3232,37.627149177269075,127.06210118175261
189,서울,태릉입구역DT,서울특별시 노원구 화랑로 469 (공릉동),1522-3232,37.61942,127.07932
190,서울,노원상계,서울특별시 노원구 동일로215길 2 (상계동),1522-3232,37.651535,127.061026
191,서울,노원구청,서울특별시 노원구 노해로 447 (상계동),1522-3232,37.6539896,127.057755
192,서울,창동이마트,서울특별시 도봉구 노해로65길 4 (창동),1522-3232,37.651658491435505,127.04686598939148
193,서울,쌍문역,서울특별시 도봉구 도봉로 480 (창동),1522-3232,37.648456,127.034783
194,서울,도봉구청,서울특별시 도봉구 마들로 665 (도봉동),1522-3232,37.6695034764443,127.04603799266
195,서울,쌍문도봉로,서울특별시 도봉구 도봉로 444 (창동),1522-3232,37.6453516,127.0331011
196,서울,도봉로DT,서울특별시 도봉구 도봉로 635 (쌍문동),1522-3232,37.6611805929041,127.041630065957
197,서울,방학역,"서울특별시 도봉구 도봉로 684 (방학동)101,102,113,114,115호",1522-3232,37.6653125,127.0433125
198,서울,창동역,서울특별시 도봉구 마들로13길 61 (창동),1522-3232,37.6545021055909,127.049672533607
199,서울,노량진동,"서울특별시 동작구 노량진로 190 (노량진동, 고려교육타워-어바니엘한강) 101호~105호",1522-3232,37.513068,126.946537
200,서울,남성역,서울특별시 동작구 사당로 219 (사당동),1522-3232,37.4841198,126.9725739
201,서울,상도역,서울특별시 동작구 상도로37길 1 (상도1동),1522-3232,37.5031936,126.9484581
202,서울,보라매공원R,"서울특별시 동작구 보라매로5길 35 (신대방동, 파크스퀘어,보라매현대APT)",1522-3232,37.49191014040362,126.92354836012281
203,서울,이수자이,서울특별시 동작구 사당로 300 (사당동 이수자이),1522-3232,37.484414,126.980047
204,서울,노량진역,서울특별시 동작구 노량진로 134 (노량진동),1522-3232,37.51339,126.940879
205,서울,신대방삼거리역,서울특별시 동작구 상도로 102 (상도동),1522-3232,37.50034872148687,126.93198758957686
206,서울,중앙대,서울특별시 동작구 흑석로 75-1 (흑석동),1522-3232,37.506933,126.958125
207,서울,숭실대입구역,서울특별시 동작구 상도로 354 (상도동),1522-3232,37.4968346,126.95271230000003
208,서울,숭실대,서울특별시 동작구 사당로 4 (상도동),1522-3232,37.49538073,126.9548891
209,서울,사당역,"서울특별시 동작구 동작대로 21, 양지빌딩 1-3층 (사당동)",1522-3232,37.47849216,126.9813456
210,서울,서강대프라자,서울특별시 마포구 백범로 35 (신수동),1522-3232,37.55102696988243,126.94313374835715
211,서울,상암YTN,서울특별시 마포구 상암산로 76 (상암동),1522-3232,37.579314265546294,126.89221044590168
212,서울,마포용강동,서울특별시 마포구 토정로 295 (용강동),1522-3232,37.541186,126.942209
213,서울,홍대입구역사거리R,서울특별시 마포구 양화로 125 (서교동),1522-3232,37.554636,126.92036
214,서울,마포경찰서후문,서울특별시 마포구 마포대로 173-14 (아현동),1522-3232,37.550800,126.953432
215,서울,공덕,서울특별시 마포구 마포대로 130 (공덕동),1522-3232,37.545913,126.952956
216,서울,합정폴리스R,"서울특별시 마포구 양화로 45 (서교동, 메세나폴리스)",1522-3232,37.5509,126.9134
217,서울,홍대공항철도역,서울특별시 마포구 양화로 178 (동교동),1522-3232,37.557491,126.925146
218,서울,마포염리,서울특별시 마포구 독막로 311 (염리동),1522-3232,37.543876,126.94768
219,서울,서강광흥창역,서울특별시 마포구 서강로 69 (창전동),1522-3232,37.549377,126.931661
220,서울,합정,"서울특별시 마포구 월드컵로1길 14 (합정동) 마포한강푸르지오 110, 111, 112-2",1522-3232,37.54997888236882,126.91254036891405
221,서울,서강대흥역,서울특별시 마포구 백범로 89-5 (대흥동),1522-3232,37.548178,126.941576
222,서울,서교동사거리,서울특별시 마포구 양화로 105 (서교동),1522-3232,37.553376,126.918564
223,서울,상암사보이시티,서울특별시 마포구 월드컵북로54길 17 (상암동),1522-3232,37.581462210224295,126.88878549621795
224,서울,신촌오거리,서울특별시 마포구 신촌로16길 10 (노고산동),1522-3232,37.555137,126.934694
225,서울,상암디지털큐브,서울특별시 마포구 상암산로 34,1522-3232,37.57613521806125,126.88892643460335
226,서울,상수역,서울특별시 마포구 독막로 88 (상수동),1522-3232,37.5474817,126.92321579999998
227,서울,공덕오거리,서울특별시 마포구 마포대로 86 (도화동) 창강빌딩,1522-3232,37.5424641,126.95057730000008
228,서울,서강대,서울특별시 마포구 백범로 23 (신수동),1522-3232,37.5524584,126.9378262
229,서울,상암MBC,서울특별시 마포구 성암로 267 (상암동),1522-3232,37.58094223885055,126.89158543354138
230,서울,홍대역,"서울특별시 마포구 양화로 165, 상진빌딩 1층 (동교동)",1522-3232,37.557175,126.923654
231,서울,동교,"서울특별시 마포구 월드컵북로 22, 영준빌딩 1층 (동교동)",1522-3232,37.556928,126.919819
232,서울,애오개역,"서울특별시 마포구 마포대로 201, 마포트라팰리스II (아현동)",1522-3232,37.5521107,126.9557094
233,서울,상암DMC,"서울특별시 마포구 월드컵북로 375, DMC이안오피스텔1단지 102호,202호 (상암동)",1522-3232,37.57770031657981,126.8909363638002
234,서울,마포일진빌딩,"서울특별시 마포구 마포대로 45, 일진빌딩 1층 (도화동)",1522-3232,37.54043451,126.9463168
235,서울,마포아크로,서울특별시 마포구 마포대로 68 (도화동) 마포아크로타워,1522-3232,37.5413348427548,126.948866602054
236,서울,홍대삼거리,서울특별시 마포구 와우산로 64 (상수동),1522-3232,37.55024764,126.9232823
237,서울,망원역,서울특별시 마포구 월드컵로 74 (서교동),1522-3232,37.555829,126.910637
238,서울,마포이마트,서울특별시 마포구 백범로 212 (신공덕동) 마포이마트,1522-3232,37.542421,126.953341
239,서울,합정메세나몰,"서울특별시 마포구 양화로 45 (서교동, 메세나폴리스)",1522-3232,37.55005846963587,126.91355876250871
240,서울,아현역대로,서울특별시 마포구 신촌로 262 (아현동),1522-3232,37.55716559459335,126.9549050409227
241,서울,디지털미디어시티역,서울특별시 마포구 성암로 179 (상암동),1522-3232,37.57614872684475,126.89894785452836
242,서울,홍대역8번출구,서울특별시 마포구 양화로 166 (동교동),1522-3232,37.556743503599,126.924166543608
243,서울,합정푸르지오,"서울특별시 마포구 월드컵로3길 14 (합정동, 마포 한강 2차 푸르지오)",1522-3232,37.55094290761422,126.9124826592047
244,서울,홍대동교,서울특별시 마포구 양화로 192 (동교동),1522-3232,37.5583280533329,126.926246501876
245,서울,망원한강공원,서울특별시 마포구 마포나루길 435 (망원동),1522-3232,37.55397484916793,126.89592784171348
246,서울,마포구청역,서울특별시 마포구 월드컵로 200 (성산동) 1층 일부,1522-3232,37.5649569864623,126.902554646241
247,서울,가재울뉴타운,"서울특별시 서대문구 가재울미래로 2 (남가좌동, DMC파크뷰자이2단지별동상가1층)",1522-3232,37.57507214454173,126.91635993282007
248,서울,남가좌사거리,"서울특별시 서대문구 거북골로 84 (남가좌동, DMC에코자이104동)",1522-3232,37.577386,126.920815
249,서울,신촌역,서울특별시 서대문구 신촌로 73 (창천동),1522-3232,37.55625738,126.934653
250,서울,아현역,"서울특별시 서대문구 신촌로35길 10 (북아현동, e편한세상신촌 4단지)",1522-3232,37.558245014814666,126.95616914989028
251,서울,홍제역,서울특별시 서대문구 통일로 451 (홍제동),1522-3232,37.588658,126.943864
252,서울,연세백양로,서울특별시 서대문구 연세로 50 (신촌동) 연세대학교,1522-3232,37.562874457,126.937440049
253,서울,연희DT,서울특별시 서대문구 연희로 144 (연희동),1522-3232,37.5702143,126.9339777
254,서울,경기대,서울특별시 서대문구 충정로 53 (충정로2가),1522-3232,37.56367995,126.9646045
255,서울,신촌,서울특별시 서대문구 연세로 10-1 (창천동),1522-3232,37.55648577,126.9371155
256,서울,이대,서울특별시 서대문구 이화여대길 34 (대현동),1522-3232,37.55848315,126.9459643
257,서울,연세종합관,"서울특별시 서대문구 연세로 50, 연세세브란스 종합관 (신촌동)",1522-3232,37.561468543,126.941119654
258,서울,이대ECC,서울특별시 서대문구 이화여대길 52 (대현동) 이화여자대학교 B415호,1522-3232,37.561631,126.94735
259,서울,연대,서울특별시 서대문구 연세로 35 (창천동),1522-3232,37.558706,126.936727
260,서울,충정로역,서울특별시 서대문구 충정로 23,1522-3232,37.56137,126.963219
261,서울,연대동문,서울특별시 서대문구 성산로 565 (대신동),1522-3232,37.56648507,126.9463253
262,서울,신촌명물거리,"서울특별시 서대문구 명물길 24, 1-5층 (창천동)",1522-3232,37.557768434,126.938154503
263,서울,충정타워,"서울특별시 서대문구 서소문로 21, 충정타워빌딩 1층 (충정로3가)",1522-3232,37.559869,126.96411
264,서울,이대역,서울특별시 서대문구 신촌로 183 (대현동),1522-3232,37.55702459539767,126.94630659955032
265,서울,신촌로,서울특별시 서대문구 신촌로 109 (창천동),1522-3232,37.55580883425132,126.93828627236182
266,서울,북가좌DT,서울특별시 서대문구 응암로 85 (북가좌동),1522-3232,37.580758,126.911478
267,서울,현대신촌,서울특별시 서대문구 신촌로 83 (창천동),1522-3232,37.55592458080376,126.93569449086847
268,서울,방배로,서울특별시 서초구 방배로 52 (방배동),1522-3232,37.4793434,126.9994968
269,서울,강남교보타워R,서울특별시 서초구 강남대로 465 (서초동),1522-3232,37.5037107773698,127.024335263404
270,서울,방배다이치빌딩,서울특별시 서초구 방배로 114 (방배동),1522-3232,37.484329,126.995872
271,서울,센트럴F1,서울특별시 서초구 신반포로 176 (반포동),1522-3232,37.505148,127.004395
272,서울,서초역이화빌딩,서울특별시 서초구 반포대로21길 3 (서초동),1522-3232,37.487931,127.009126
273,서울,서초구청,서울특별시 서초구 남부순환로 2557 (서초동),1522-3232,37.484353839,127.030090489
274,서울,서초우성사거리,서울특별시 서초구 강남대로 343 (서초동),1522-3232,37.493545,127.02943
275,서울,이수역사거리,"서울특별시 서초구 서초대로 3-4 (방배동, 방배디오슈페리움1)",1522-3232,37.48585,126.983027
276,서울,강남대로신사,서울특별시 서초구 강남대로 595 (잠원동),1522-3232,37.51489,127.019469
277,서울,서울고속터미널,서울특별시 서초구 신반포로 194 (반포동),1522-3232,37.5045697,127.0061603
278,서울,방배,서울특별시 서초구 방배로 211,1522-3232,37.491914,126.99049739999998
279,서울,방배카페거리,서울특별시 서초구 방배중앙로 162 (방배동),1522-3232,37.4934767,126.9865297
280,서울,서초법원,서울특별시 서초구 서초대로 274 (서초동),1522-3232,37.492970,127.011875
281,서울,청계산입구역,서울특별시 서초구 청계산로 203 (신원동),1522-3232,37.447323,127.056250
282,서울,사당로데오,서울특별시 서초구 방배천로 5-4(방배동),1522-3232,37.4772752,126.98216049999996
283,서울,파미에파크R,서울특별시 서초구 사평대로 205 (반포동) CENTRALCITY,1522-3232,37.5030521,127.004362
284,서울,양재역,서울특별시 서초구 강남대로 202 (양재동) 모산빌딩,1522-3232,37.482379525,127.036853356
285,서울,논현역,서울특별시 서초구 강남대로 557 (잠원동) 1~2층,1522-3232,37.5114376142061,127.020548691552
286,서울,이수역,서울특별시 서초구 동작대로 112 (방배동),1522-3232,37.4864664,126.98274029999993
287,서울,내방역,서울특별시 서초구 방배로 184 (방배동) 대풍빌딩,1522-3232,37.490004,126.992455
288,서울,서초파라곤,서울특별시 서초구 서초대로74길 29 (서초동) 서초파라곤,1522-3232,37.49494258899,127.027426341397
289,서울,서울아트센터,서울특별시 서초구 남부순환로 2395 (서초동) 호경빌딩,1522-3232,37.480866,127.012368
290,서울,서초중앙로,서울특별시 서초구 서초중앙로 225,1522-3232,37.501691,127.01152
291,서울,센트럴시티,서울특별시 서초구 신반포로 176 (반포동),1522-3232,37.504707,127.004459
292,서울,강남삼성타운,서울특별시 서초구 서초대로78길 24 (서초동),1522-3232,37.49562035,127.0277144
293,서울,방배역,서울특별시 서초구 방배로 84 (방배동),1522-3232,37.48200755,126.9976438
294,서울,반포역,서울특별시 서초구 신반포로 257 (잠원동) 신반포11차상가,1522-3232,37.508589,127.011959
295,서울,남부터미널,"서울특별시 서초구 서초중앙로 26, 래미안서초유니빌 1층 101호 (서초동)",1522-3232,37.48467334,127.0169464
296,서울,뉴코아강남,서울특별시 서초구 잠원로 69 (잠원동) 킴스클럽,1522-3232,37.51031339,127.0069582
297,서울,강남서초초교,"서울특별시 서초구 서초대로77길 27, 유빌딩 1,2층 (서초동)",1522-3232,37.5000875,127.02549090000002
298,서울,교대,서울특별시 서초구 서초중앙로 118 (서초동),1522-3232,37.4923611,127.0142207
299,서울,하이브랜드,"서울특별시 서초구 매헌로 16, 리빙관 101호 (양재동)",1522-3232,37.46252023465575,127.03666795290289
300,서울,신논현역,서울특별시 서초구 강남대로 483 (반포동) 청호빌딩,1522-3232,37.50529,127.023636
301,서울,영동2교,"서울특별시 서초구 논현로 139, 대흥빌딩 (양재동)",1522-3232,37.48203954,127.0425748
302,서울,남부터미널역5번출구,서울특별시 서초구 효령로 274 (서초동),1522-3232,37.48436736,127.0142192
303,서울,서래마을입구,서울특별시 서초구 서래로 48 (반포동),1522-3232,37.49925284,126.9984801
304,서울,몬테소리,서울특별시 서초구 강남대로 399 (서초동),1522-3232,37.4982695,127.026865
305,서울,서초역,서울특별시 서초구 반포대로 118 (서초동),1522-3232,37.49067495,127.0086118
306,서울,교대법원,서울특별시 서초구 서초중앙로 164 (서초동),1522-3232,37.496329,127.013336
307,서울,강남GT타워,"서울특별시 서초구 서초대로 411, GT타워 (서초동)",1522-3232,37.4979079083082,127.026162553761
308,서울,서초동,"서울특별시 서초구 남부순환로339길 64, 현우빌딩 1층 (서초동)",1522-3232,37.485941,127.021525
309,서울,서울교대,"서울특별시 서초구 서초중앙로 64, 1층 (서초동)",1522-3232,37.487397,127.015134
310,서울,강남에비뉴,"서울특별시 서초구 서초대로77길 62, 강남역아이파크 B102~B105 (서초동)",1522-3232,37.5025778098288,127.024105881331
311,서울,반포자이,서울특별시 서초구 잠원로 24 (반포동),1522-3232,37.507170475349405,127.0099189083483
312,서울,서초태우빌딩,서울특별시 서초구 강남대로 285 (서초동),1522-3232,37.48870504886586,127.03158117446388
313,서울,교대역3번출구,서울특별시 서초구 서초중앙로24길 10 (서초동),1522-3232,37.4943456632732,127.014900469688
314,서울,반포원베일리,서울특별시 서초구 반포대로 291 (반포동),1522-3232,37.504657083267006,126.99903302367885
315,서울,양재역신분당역사,서울특별시 서초구 남부순환로 2585 신분당선 양재역 지하1층,1522-3232,37.4839347328908,127.034544193436
316,서울,강남역우송빌딩,서울특별시 서초구 서초대로73길 7 (서초동),1522-3232,37.4981314601413,127.02527908458
317,서울,서이초교사거리,서울특별시 서초구 사임당로 143 (서초동),1522-3232,37.4918146,127.0252252
318,서울,서울웨이브아트센터,서울특별시 서초구 잠원로 145-35 (잠원동),1522-3232,37.518807,127.00704
319,서울,길음역,서울특별시 성북구 정릉로 376 (돈암동),1522-3232,37.602139,127.025271
320,서울,미아이마트,서울특별시 성북구 도봉로 17 (길음동),1522-3232,37.61054298669914,127.02998756720751
321,서울,종암DT,서울특별시 성북구 종암로 17 (종암동),1522-3232,37.5919525,127.0360401
322,서울,미아,서울특별시 성북구 동소문로 314 (하월곡동),1522-3232,37.607581,127.029303
323,서울,성신여대정문,서울특별시 성북구 보문로34길 62 (동선동2가),1522-3232,37.590910,127.018800
324,서울,종암,서울특별시 성북구 종암로 122 (종암동),1522-3232,37.601095,127.033847
325,서울,삼선교,서울특별시 성북구 동소문로 10 (동소문동2가),1522-3232,37.588696,127.00732070000003
326,서울,월곡역,"서울특별시 성북구 화랑로 76, 101-1호 (하월곡동)",1522-3232,37.60203,127.040643
327,서울,고대,서울특별시 성북구 고려대로24길 51 (안암동5가),1522-3232,37.583925,127.029594
328,서울,현대미아,서울특별시 성북구 동소문로 315 (길음동) 지하1층,1522-3232,37.608513711399176,127.02917698842086
329,서울,성신여대,서울특별시 성북구 동소문로24길 12 (동선동1가),1522-3232,37.593135,127.018379
330,서울,안암역,서울특별시 성북구 고려대로 102-2 (안암동5가),1522-3232,37.586319,127.030556
331,서울,한성대입구역,서울특별시 성북구 성북로 11 (성북동1가),1522-3232,37.589054,127.004839
332,서울,길음뉴타운,"서울특별시 성북구 길음로 11 (길음동, 길음역롯데캐슬트윈골드아파트)",1522-3232,37.603633,127.023459
333,서울,고대안암병원,서울특별시 성북구 고려대로 73 (안암동5가),1522-3232,37.586874,127.02811
334,서울,장위뉴타운,서울특별시 성북구 장월로38길 4 (장위동),1522-3232,37.618072316295915,127.05152854027804
335,서울,성신여대입구역,서울특별시 성북구 동소문로 105 (동선동4가),1522-3232,37.59304,127.016641
336,서울,송파나루역DT,서울특별시 송파구 오금로 142 (송파동),1522-3232,37.510976,127.110358
337,서울,송파헬리오시티,"서울특별시 송파구 송파대로 345 (가락동, 헬리오시티)",1522-3232,37.4977826892486,127.102851954992
338,서울,잠실시그마타워,서울특별시 송파구 올림픽로 289 (신천동),1522-3232,37.51461,127.102774
339,서울,문정법원로R,서울특별시 송파구 송파대로 201 (문정동),1522-3232,37.487356272840365,127.11911981125742
340,서울,송파개롱역,서울특별시 송파구 오금로 420 (가락동),1522-3232,37.496956,127.13652
341,서울,문정하비오,"서울특별시 송파구 송파대로 111 (문정동, 파크하비오) 204동 104호~107호",1522-3232,37.48211912934925,127.12354072397868
342,서울,문정역,"서울특별시 송파구 송파대로 167 (문정동)테라타워 B동 137호~139호,204호",1522-3232,37.48529649766194,127.12227677436003
343,서울,잠실대교남단R,서울특별시 송파구 송파대로 570 타워 730 1층,1522-3232,37.515511,127.099006
344,서울,송파위례,"서울특별시 송파구 위례광장로 230 (장지동, 위례2차아이파크)",1522-3232,37.478416,127.143161
345,서울,송파방이DT,서울특별시 송파구 오금로 241 (방이동),1522-3232,37.506564,127.120495
346,서울,올림픽평화의문,서울특별시 송파구 위례성대로 38 (방이동) 해태그린피아빌라트,1522-3232,37.5156426,127.11648190000005
347,서울,송파아이파크,서울특별시 송파구 법원로 55 (문정동),1522-3232,37.47979344097158,127.12242043651424
348,서울,송파사거리,서울특별시 송파구 송파대로 386 (송파동),1522-3232,37.5022788,127.1103904
349,서울,석촌서호,서울특별시 송파구 석촌호수로 176 (삼전동),1522-3232,37.5063929,127.0964684
350,서울,문정로데오,서울특별시 송파구 동남로 141 (가락동),1522-3232,37.491858429761606,127.12623104068281
351,서울,올림픽훼미리,서울특별시 송파구 중대로 68 (문정동),1522-3232,37.491616375205915,127.11626573028454
352,서울,올림픽공원남문,서울특별시 송파구 위례성대로 102 (방이동),1522-3232,37.5133,127.123113
353,서울,방이역,"서울특별시 송파구 마천로 53, 1~2층 (오금동)",1522-3232,37.5084904076542,127.126776485458
354,서울,석촌호수,서울특별시 송파구 석촌호수로 262 (송파동),1522-3232,37.50957859,127.10532641
355,서울,잠실푸르지오월드,"서울특별시 송파구 올림픽로35가길 9, 잠실푸르지오월드마크 1층 (신천동)",1522-3232,37.517287,127.103247
356,서울,잠실새내역,서울특별시 송파구 올림픽로 96 (잠실동),1522-3232,37.511679,127.081062
357,서울,잠실역,"서울특별시 송파구 송파대로 562 (신천동, 웰리스타워,삼성웰리스아파트) 1층,2층",1522-3232,37.515272,127.099231
358,서울,갤러리아팰리스,"서울특별시 송파구 올림픽로 212, 갤러리아 팰리스 (잠실동)",1522-3232,37.511561,127.093616
359,서울,아시아선수촌,서울특별시 송파구 백제고분로 69 (잠실동),1522-3232,37.51059,127.079047
360,서울,올림픽아파트,서울특별시 송파구 양재대로 1220 (방이동),1522-3232,37.515315,127.133237
361,서울,가락본동,서울특별시 송파구 송파대로30길 13 (가락동),1522-3232,37.494812392616524,127.11883481297143
362,서울,석촌역,"서울특별시 송파구 백제고분로 358, 1층 (석촌동)",1522-3232,37.5042626,127.10610769999994
363,서울,가락시장역,"서울특별시 송파구 중대로 121, 롯데캐슬 파인힐 1층 (가락동)",1522-3232,37.49442875605291,127.1217432178345
364,서울,가든파이브,서울특별시 송파구 충민로 10 (문정동) 가든파이브툴,1522-3232,37.477974676564614,127.12118515527476
365,서울,문정역2번출구,서울특별시 송파구 문정로 1 (문정동),1522-3232,37.48629340180307,127.12320273731552
366,서울,잠실본동,"서울특별시 송파구 백제고분로 91 (잠실동), 1층",1522-3232,37.5086445885442,127.07949103207
367,서울,송파NC,서울특별시 송파구 충민로 66 (문정동) 가든파이브라이프 패션관1층,1522-3232,37.47804418570353,127.12580079741947
368,서울,송파거여역,서울특별시 송파구 오금로 493 (거여동),1522-3232,37.49360000716603,127.14364544756283
369,서울,몽촌토성역,서울특별시 송파구 위례성대로 6 (방이동),1522-3232,37.516913,127.113127
370,서울,송파KT,"서울특별시 송파구 잠실로 209 (신천동), 오피스빌딩 1층 2~4호",1522-3232,37.51394208,127.10699228
371,서울,문정법조타운 한양타워,서울특별시 송파구 법원로11길 12 (문정동),1522-3232,37.485796586165364,127.11781422446037
372,서울,송파마천사거리DT,서울특별시 송파구 거마로 78 (마천동),1522-3232,37.499829,127.147672
373,서울,목동파리공원,서울특별시 양천구 목동동로 377 (목동),1522-3232,37.535336,126.878852
374,서울,등촌역,서울특별시 양천구 공항대로 566 (목동) 1층 2층,1522-3232,37.548884,126.86807
375,서울,목동행복한,서울특별시 양천구 목동동로 309 (목동),1522-3232,37.52935595865839,126.87589210780987
376,서울,신정DT,서울특별시 양천구 신월로 341 (신정동),1522-3232,37.521993,126.858865
377,서울,목동역,서울특별시 양천구 목동로 203 (신정동) 1층일부,1522-3232,37.526684,126.863986
378,서울,목동오목로,"서울특별시 양천구 오목로 279 (목동) 102,103,104,105호",1522-3232,37.525923,126.868438
379,서울,목동8단지,서울특별시 양천구 목동서로 299 (신정동),1522-3232,37.520518,126.868841
380,서울,오목교역,서울특별시 양천구 오목로 354 (목동),1522-3232,37.523855929257174,126.87644987818643
381,서울,신월IC DT,서울특별시 양천구 남부순환로 430 (신월동),1522-3232,37.529502437956104,126.83220232277918
382,서울,목동7단지,서울특별시 양천구 목동서로 213 (목동) 세신비젼프라자,1522-3232,37.528012,126.87053
383,서울,목동5단지,"서울특별시 양천구 목동동로 411, 1동 116호(목동, 부영그린타운3차)",1522-3232,37.5363856363692,126.88211754815594
384,서울,목동,서울특별시 양천구 목동서로 67 (목동) 우성에펠타운,1522-3232,37.53638383,126.8785597
385,서울,현대목동,"서울특별시 양천구 목동동로 257 (목동, 현대하이페리온) 지하2층",1522-3232,37.526627173612354,126.87494068240842
386,서울,목동SBS,"서울특별시 양천구 목동서로 161 (목동), 1/2층 일부",1522-3232,37.52896162444895,126.87363009594163
387,서울,목동트라팰리스,서울특별시 양천구 오목로 299 (목동),1522-3232,37.5255,126.8702
388,서울,목동10단지,"서울특별시 양천구 목동서로 401 (신정동, 대림아크로빌), 상가A동 101,101-1호",1522-3232,37.515425616177,126.859603067999
389,서울,신월동DT,서울특별시 양천구 남부순환로 319 (신월동),1522-3232,37.5382923530559,126.827101409243
390,서울,타임스퀘어R,서울특별시 영등포구 영중로 15 지하 1층 (영등포동4가),1522-3232,37.51755,126.90516
391,서울,샛강역,서울특별시 영등포구 여의대방로 376 (여의도동),1522-3232,37.518332317007065,126.93120207357978
392,서울,영등포역,서울특별시 영등포구 경인로 870 (영등포동1가),1522-3232,37.517020000646795,126.9091910464292
393,서울,당산대로,서울특별시 영등포구 양평로 22 (당산동6가),1522-3232,37.533121,126.903804
394,서울,여의도IFC몰(L1)R,서울특별시 영등포구 국제금융로 10 (여의도동) 지하1층 178호,1522-3232,37.525386315990104,126.92606524560121
395,서울,여의도KBS R,서울특별시 영등포구 의사당대로 26 (여의도동),1522-3232,37.526596,126.918456
396,서울,여의도화재보험,서울특별시 영등포구 국제금융로6길 38 (여의도동),1522-3232,37.521345,126.926004
397,서울,국회대로,서울특별시 영등포구 국회대로 786 (여의도동),1522-3232,37.53026,126.919549
398,서울,영등포KT,서울특별시 영등포구 영중로 119 (영등포동8가),1522-3232,37.526419,126.905314
399,서울,여의도공원R,서울특별시 영등포구 여의공원로 101 (여의도동),1522-3232,37.529129532990446,126.92535729471122
400,서울,국회의사당역,서울특별시 영등포구 의사당대로 8 (여의도동),1522-3232,37.52805409993459,126.91711953333622
401,서울,여의도역R,서울특별시 영등포구 의사당대로 83 (여의도동) 1층,1522-3232,37.523328,126.923439
402,서울,선유동이레빌딩,서울특별시 영등포구 선유동2로 57 (양평제1동) 이레빌딩,1522-3232,37.534277678053385,126.89697631969191
403,서울,동여의도,서울특별시 영등포구 국제금융로 86 (여의도동) 롯데캐슬 아이비,1522-3232,37.52063015571123,126.93168638298105
404,서울,여의도ABL타워,서울특별시 영등포구 의사당대로 147 (여의도동) 알리안츠타워,1522-3232,37.51892955155552,126.92796068994703
405,서울,영등포신길,"서울특별시 영등포구 신길로 137 (신길동) 1,2층",1522-3232,37.504566,126.910073
406,서울,문래역,서울특별시 영등포구 당산로 34 (문래동3가),1522-3232,37.517446,126.895258
407,서울,당산,서울특별시 영등포구 양평로 64 (당산동6가),1522-3232,37.534994324005595,126.90000472153657
408,서울,여의도한양증권,서울특별시 영등포구 국제금융로6길 7 (여의도동) 한양증권,1522-3232,37.522444156811076,126.92910834211145
409,서울,여의도일신,서울특별시 영등포구 은행로 11 (여의도동) 1층 1부,1522-3232,37.52774993247095,126.92027623791678
410,서울,하이테크시티,서울특별시 영등포구 경인로 775 (문래동3가) 에이스하이테크시티,1522-3232,37.51445587278118,126.89987943038909
411,서울,여의도,서울특별시 영등포구 국제금융로2길 28 (여의도동),1522-3232,37.52411725898374,126.92464676680005
412,서울,롯데캐슬여의도,"서울특별시 영등포구 의사당대로 127 (여의도동, 롯데캐슬엠파이어) 1층 104호",1522-3232,37.52025214,126.9263678
413,서울,문래동,"서울특별시 영등포구 선유로 64, 대창타운빌 1층 (문래동3가)",1522-3232,37.519602,126.889652
414,서울,여의도호성,"서울특별시 영등포구 여의대방로65길 24, 호성빌딩 1층 (여의도동)",1522-3232,37.52047101976742,126.92920636135348
415,서울,타임스퀘어B2,"서울특별시 영등포구 영중로 15, 지하2층 (영등포동4가)",1522-3232,37.516922979246246,126.90330917802369
416,서울,영등포본동,서울특별시 영등포구 영등포로 254 (영등포동3가),1522-3232,37.518713,126.909559
417,서울,타임스퀘어2F,서울특별시 영등포구 영중로 15 지상2층 (영등포동4가),1522-3232,37.51680365429925,126.90338002881407
418,서울,여의도의사당,서울특별시 영등포구 국회대로74길 12 (여의도동),1522-3232,37.530023,126.92109
419,서울,여의도IFC(1F),서울특별시 영등포구 국제금융로 10 (여의도동),1522-3232,37.525273,126.924668
420,서울,여의도교직원공제회,서울특별시 영등포구 여의나루로 50 (여의도동),1522-3232,37.52191490479988,126.92558789987339
421,서울,선유도역 1번출구,서울특별시 영등포구 양평로 128 (양평동5가)양평로 128,1522-3232,37.538333,126.893612
422,서울,영등포시장역,서울특별시 영등포구 영중로 79 (영등포동7가),1522-3232,37.52349264546045,126.90497778447685
423,서울,영등포구청역,서울특별시 영등포구 국회대로 558,1522-3232,37.527967742744615,126.89620438907397
424,서울,서울양평역,"서울특별시 영등포구 선유서로24길 6 (양평동1가, 영등포 중흥 S-CLASS)",1522-3232,37.523128,126.885809
425,서울,영등포시장교차로,서울특별시 영등포구 영중로 45 (영등포동6가),1522-3232,37.5204239,126.904446
426,서울,더현대서울(B2)R,서울특별시 영등포구 여의대로 108 (여의도동),1522-3232,37.5258834618679,126.928658229468
427,서울,여의도브라이튼,"서울특별시 영등포구 국제금융로 39 (여의도동, 브라이튼 여의도), 1층",1522-3232,37.5241006226166,126.929817318958
428,서울,여의도TP타워,서울특별시 영등포구 의사당대로 96 (여의도동),1522-3232,37.521413300528906,126.92317041726257
429,서울,당산역사거리,서울특별시 영등포구 양평로 47 (당산동5가),1522-3232,37.53409659351415,126.90121370080551
430,서울,신풍역,서울특별시 영등포구 신풍로 23 (신길동),1522-3232,37.5003469620528,126.908438384002
431,서울,불광역,서울특별시 은평구 통일로 715 (대조동),1522-3232,37.609382,126.9303971
432,서울,구파발사거리,서울특별시 은평구 진관3로 21 은평엘크루 101동 105-108호,1522-3232,37.639617,126.91881
433,서울,연신내역사거리,서울특별시 은평구 통일로 842 (불광동),1522-3232,37.618773940257306,126.92179889674078
434,서울,연신내,서울특별시 은평구 통일로 867 (갈현동),1522-3232,37.6203213,126.9198926
435,서울,구파발역,서울특별시 은평구 진관2로 12,1522-3232,37.63446,126.918881
436,서울,은평구청입구,서울특별시 은평구 은평로 170 (응암동),1522-3232,37.601042,126.926789
437,서울,은평이마트,서울특별시 은평구 은평로 111 (응암동),1522-3232,37.60037923,126.9202735
438,서울,구산역,서울특별시 은평구 연서로 146 (대조동),1522-3232,37.611745,126.917678
439,서울,불광역8번출구,서울특별시 은평구 통일로 746 (불광동),1522-3232,37.61199,126.9289
440,서울,응암역2번출구,서울특별시 은평구 연서로 17 (역촌동),1522-3232,37.6006318,126.915779
441,서울,수색,서울특별시 은평구 수색로 216 (수색동),1522-3232,37.58006406944348,126.89956239090266
442,서울,새절역,서울특별시 은평구 증산로 371 (신사동),1522-3232,37.5894266730207,126.912863456524
443,서울,더북한산,서울특별시 은평구 대서문길 24-11 (진관동),1522-3232,37.6554576593266,126.947556374345
444,서울,녹번역,"서울특별시 은평구 통일로 636 (녹번동) 110,111,112,113,114,115호",1522-3232,37.603307621312325,126.93528567756574
445,서울,진관DT,서울특별시 은평구 연서로 645 (진관동),1522-3232,37.6501787,126.9361968
446,서울,연신내역5번출구,"서울특별시 은평구 연서로 222 (대조동), 1층",1522-3232,37.6181353632704,126.920381333406
447,서울,연합뉴스,서울특별시 종로구 율곡로2길 25 (수송동),1522-3232,37.57462713751161,126.98047541991131
448,서울,혜화역,서울특별시 종로구 대학로12길 4 (동숭동)1~2층,1522-3232,37.5824779,127.0021850
449,서울,경희궁로,서울특별시 종로구 새문안로3길 15 (당주동),1522-3232,37.571759,126.972343
450,서울,강북삼성병원,서울특별시 종로구 새문안로 29 (평동) C관 5층,1522-3232,37.568546,126.96756
451,서울,종로평창동,서울특별시 종로구 평창12길 3 (평창동),1522-3232,37.60614770769474,126.96736414444056
452,서울,광화문우체국,서울특별시 종로구 종로 6 (서린동),1522-3232,37.57000686119245,126.9780599046084
453,서울,종로R,서울특별시 종로구 종로 51 (종로2가),1522-3232,37.5708,126.9834
454,서울,독립문역,서울특별시 종로구 송월길 155 경희궁자이 4단지 1층 팰리스애비뉴 4114~4119호,1522-3232,37.571432,126.961269
455,서울,정부서울청사R,서울특별시 종로구 새문안로5가길 28 (적선동),1522-3232,37.574621312530724,126.97367761929035
456,서울,종로구청,서울특별시 종로구 삼봉로 71 (수송동),1522-3232,37.572498614917706,126.98095141204923
457,서울,북촌로,서울특별시 종로구 북촌로4길 23 (계동),1522-3232,37.579419015932245,126.98648560012543
458,서울,종로수송,서울특별시 종로구 종로5길 30 (청진동) 1~3층,1522-3232,37.57165162614545,126.98062335393885
459,서울,새문안로,서울특별시 종로구 새문안로 92 (신문로1가) 광화문오피시아빌딩,1522-3232,37.569853082636385,126.97499519103074
460,서울,안국,서울특별시 종로구 북촌로 5-1 (재동),1522-3232,37.577393946851735,126.98576427427058
461,서울,삼청동,서울특별시 종로구 삼청로 111-1 (삼청동),1522-3232,37.58541226323984,126.98191331140823
462,서울,광화문D타워,서울특별시 종로구 종로3길 17 (청진동) D타워,1522-3232,37.57049132960646,126.97907003783457
463,서울,적선,"서울특별시 종로구 새문안로5길 55, 노스게이트빌딩 1층 (적선동)",1522-3232,37.57529940979838,126.97412453401081
464,서울,인사,서울특별시 종로구 인사동길 14 (인사동),1522-3232,37.57220884263517,126.98679819956659
465,서울,광화문,서울특별시 종로구 세종대로 167 (세종로),1522-3232,37.571254401637304,126.97631064081757
466,서울,성대입구,서울특별시 종로구 창경궁로 235 (명륜3가),1522-3232,37.582892,126.998392
467,서울,스페이스본,서울특별시 종로구 사직로8길 4 (사직동) 광화문 풍림스페이스본,1522-3232,37.57493107689841,126.96921731857209
468,서울,주얼리시티,서울특별시 종로구 종로 183 (인의동) 효성주얼리시티,1522-3232,37.5714829206881,126.998666645245
469,서울,종각,서울특별시 종로구 종로 64 (종로2가),1522-3232,37.57001689280663,126.98450354974083
470,서울,동숭로아트,서울특별시 종로구 동숭길 110 (동숭동),1522-3232,37.582969,127.003876
471,서울,종로관철,"서울특별시 종로구 종로12길 21, 2층 (관철동)",1522-3232,37.56913860117361,126.98593280684017
472,서울,경복궁역,"서울특별시 종로구 자하문로4길 6, 1층 (통의동)",1522-3232,37.5771508,126.97274530000004
473,서울,이마빌딩,서울특별시 종로구 종로1길 42 (수송동),1522-3232,37.5738637,126.97897149999994
474,서울,마로니에공원,"서울특별시 종로구 대학로 116, 1-2층 (동숭동)",1522-3232,37.58154296,127.0023412
475,서울,종로3가,"서울특별시 종로구 종로 113-1, 1-4층 (종로3가)",1522-3232,37.57056485920516,126.99021701586494
476,서울,대학로,"서울특별시 종로구 대학로 57, 홍익대학교 대학로캠퍼스 內 (연건동)",1522-3232,37.5764916392943,127.001470988378
477,서울,경복궁사거리,"서울특별시 종로구 율곡로 6, B동 101호(중학동, 트윈트리타워)",1522-3232,37.575615939508076,126.9802374336133
478,서울,종로관수,서울특별시 종로구 삼일대로20길 13 (관수동),1522-3232,37.56971102439499,126.98863522829857
479,서울,광화문교보문고,서울특별시 종로구 종로 1 (종로1가),1522-3232,37.571017,126.977937
480,서울,정동,서울특별시 종로구 새문안로 42 (신문로2가),1522-3232,37.56866486265962,126.97002074047501
481,서울,종로플레이스,서울특별시 종로구 창경궁로 120 (인의동),1522-3232,37.5731377743929,126.998354975801
482,서울,강북삼성병원1층,서울특별시 종로구 새문안로 29 (평동) A관 1층,1522-3232,37.568546,126.96756
483,서울,동숭길입구,서울특별시 종로구 대학로 146 (혜화동),1522-3232,37.584236,127.002014
484,서울,서울대치과병원,서울특별시 종로구 대학로 101 서울대학교 치과병원 신관1층,1522-3232,37.5774740926489,126.999891434786
485,서울,서대문적십자,서울특별시 종로구 새문안로 9 (평동) 서울적십자병원 별관 상가동 1층 B호,1522-3232,37.56678781817199,126.96730492051981
486,서울,서대문역,서울특별시 종로구 통일로 134 (평동),1522-3232,37.567091484279196,126.96582198610879
487,서울,숭례문북창,서울특별시 중구 세종대로12길 12 (남대문로4가),1522-3232,37.561725,126.976838
488,서울,을지로4가역,서울특별시 중구 을지로 170 (을지로4가),1522-3232,37.56634407411786,126.99753246143461
489,서울,동대문두타,서울특별시 중구 장충단로 275 (을지로6가),1522-3232,37.5691,127.0088
490,서울,대한상공회의소R,서울특별시 중구 세종대로 39 (남대문로4가) 1층,1522-3232,37.560938,126.973702
491,서울,국립중앙의료원,서울특별시 중구 을지로 251 (을지로6가),1522-3232,37.5665160,127.0062376
492,서울,동국대,서울특별시 중구 서애로 1길 11,1522-3232,37.561542,126.998437
493,서울,동대문공원,서울특별시 중구 장충단로 229 (광희동1가),1522-3232,37.565133,127.007191
494,서울,을지로국제빌딩,서울특별시 중구 남대문로 109 (다동),1522-3232,37.566952,126.982219
495,서울,동대입구역,서울특별시 중구 장충단로 166 (장충동1가),1522-3232,37.5596804372304,127.006202929994
496,서울,신당역사거리,서울특별시 중구 다산로 258 (흥인동),1522-3232,37.565807,127.01643
497,서울,연세세브란스,서울특별시 중구 통일로 10 (남대문로5가),1522-3232,37.557207,126.97354
498,서울,회현역,서울특별시 중구 퇴계로 72 (회현동) 리더스뷰남산,1522-3232,37.55947242829924,126.98072554032831
499,서울,을지로경기빌딩,서울특별시 중구 남대문로10길 9 (삼각동) 경기빌딩,1522-3232,37.56707721942303,126.98322227123015
500,서울,을지로2가,서울특별시 중구 삼일대로 358 (을지로2가),1522-3232,37.566347,126.988066
501,서울,신세계본점6F,서울특별시 중구 퇴계로 77 (충무로1가),1522-3232,37.560381,126.980758
502,서울,서울중앙우체국,서울특별시 중구 소공로 70 (충무로 1가) 서울 중앙 우체국,1522-3232,37.561678,126.982117
503,서울,한국프레스센터,서울특별시 중구 세종대로 124 (태평로1가),1522-3232,37.56724756017782,126.9780493948243
504,서울,명동중앙로,서울특별시 중구 명동길 60 (명동 2가),1522-3232,37.5637485,126.9857723
505,서울,약수역,서울특별시 중구 다산로 129 (신당동),1522-3232,37.555437,127.0107253
506,서울,중구저동,서울특별시 중구 수표로 34 (저동2가),1522-3232,37.5643686,126.9903382
507,서울,명동길,서울특별시 중구 명동10길 41,1522-3232,37.5620695,126.9858669
508,서울,서소문로,서울특별시 중구 서소문로 120 (서소문동) 대한빌딩,1522-3232,37.563006,126.974546
509,서울,신당역,"서울특별시 중구 퇴계로 385, 1층 (흥인동)",1522-3232,37.5654033985295,127.014352404697
510,서울,명동메트로,서울특별시 중구 명동9가길 14 (을지로1가) 메트로호텔,1522-3232,37.565118,126.983681
511,서울,숭례문,"서울특별시 중구 세종대로 17, 그레이츠 숭례 1층 (남대문로5가)",1522-3232,37.55874473,126.9730952
512,서울,순화동더샵,"서울특별시 중구 칠패로 27, 1층 (순화동)",1522-3232,37.56006079590111,126.97183790303104
513,서울,환구단,서울특별시 중구 소공로 112 (소공동),1522-3232,37.56459884548825,126.9792301485792
514,서울,무교동,서울특별시 중구 무교로 21 (무교동) 코오롱빌딩 1층,1522-3232,37.567928021468916,126.9792065857694
515,서울,문화일보,서울특별시 중구 새문안로 22 (충정로1가) 문화일보,1522-3232,37.56712291,126.9686642
516,서울,태평로,"서울특별시 중구 세종대로 72, 대영빌딩 1층 (태평로2가)",1522-3232,37.56248285,126.9767928
517,서울,퍼시픽타워,"서울특별시 중구 세종대로9길 41, 퍼시픽타워 1층 (서소문동)",1522-3232,37.56132157,126.9730264
518,서울,남산단암,"서울특별시 중구 소월로 10, 단암빌딩 (남대문로5가)",1522-3232,37.55853622,126.9754585
519,서울,황학캐슬,서울특별시 중구 청계천로 400 (황학동) 롯데캐슬베네치아,1522-3232,37.5714,127.0231
520,서울,을지로삼화타워,서울특별시 중구 을지로5길 16 (을지로2가) 1층,1522-3232,37.566902,126.984707
521,서울,소공로,"서울특별시 중구 남대문로7길 19, 삼영빌딩 1층 일부 (소공동)",1522-3232,37.5637273,126.98076809999998
522,서울,을지로한국빌딩,"서울특별시 중구 을지로 50, 1층 (을지로 2가)",1522-3232,37.565722,126.98329
523,서울,시청,"서울특별시 중구 을지로 19, 삼성화재삼성빌딩 1층 (을지로1가)",1522-3232,37.56629,126.979808
524,서울,명동역,"서울특별시 중구 퇴계로 101, 건물 전체 (충무로 1가)",1522-3232,37.5608622201549,126.983105390255
525,서울,명동입구,서울특별시 중구 남대문로 68-1 (명동2가),1522-3232,37.563319,126.982242
526,서울,장충라운지R,서울특별시 중구 장충단로4길 25 (장충동1가),1522-3232,37.561036913264,127.007334747398
527,서울,충무로,서울특별시 중구 충무로 3 (필동1가),1522-3232,37.5614959808102,126.992823097196
528,서울,이마트타워,서울특별시 중구 세종대로7길 37 (순화동) 1층,1522-3232,37.5607434636967,126.972528391958
529,서울,동호로,서울특별시 중구 동호로 171 (신당동),1522-3232,37.553478403261,127.011305155237
530,서울,무교로,서울특별시 중구 무교로 15 (무교동),1522-3232,37.56722071682264,126.97907661254083
531,서울,청계크리스탈스퀘어,서울특별시 중구 청계천로 106 (수표동),1522-3232,37.5679,126.98933
532,서울,숭례문SG타워,서울특별시 중구 세종대로 14 (남대문로5가),1522-3232,37.5581293,126.9742637
533,서울,세종대로,서울특별시 중구 세종대로 135-5 (태평로1가),1522-3232,37.568678,126.976493
534,서울,동대문디자인플라자,서울특별시 중구 을지로 281 (을지로7가) 디자인장터,1522-3232,37.5675,127.0094
535,서울,별다방,서울특별시 중구 퇴계로 100 (회현동2가),1522-3232,37.5602013,126.9829327
536,서울,포포인츠명동,서울특별시 중구 삼일대로10길 36 (저동2가),1522-3232,37.5657211,126.9893426
537,서울,명동남산,서울특별시 중구 퇴계로 132 (남산동3가),1522-3232,37.560809,126.986397
538,서울,명일역,서울특별시 강동구 양재대로 1647 (명일동),1522-3232,37.55255451856903,127.14388583677322
539,서울,강동구청DT,서울특별시 강동구 성내로 32 (성내동),1522-3232,37.52938776679806,127.12384773690836
540,서울,강동암사DT,서울특별시 강동구 고덕로 43 (암사동),1522-3232,37.555073228709134,127.12992233765308
541,서울,굽은다리역,"서울특별시 강동구 양재대로 1568 (명일동, 원일타워)",1522-3232,37.54526203653031,127.14298353027375
542,서울,강동역,"서울특별시 강동구 천호대로 1089 (천호동, 강동 헤르셔)",1522-3232,37.536047,127.133086
543,서울,둔촌동,서울특별시 강동구 양재대로 1303 (성내동) 평원빌딩,1522-3232,37.52264171306811,127.13398661016131
544,서울,천호로데오,서울특별시 강동구 천호대로 1037 (천호동),1522-3232,37.5378069,127.12730940000006
545,서울,천호이마트,서울특별시 강동구 천호대로 1015-14 (천호동) 이마트별관,1522-3232,37.538984278389535,127.12517047134832
546,서울,길동역,서울특별시 강동구 양재대로 1487 (길동),1522-3232,37.53870166831661,127.14013947484787
547,서울,상일동,"서울특별시 강동구 상일로10길 36, 1~2층 (상일동)",1522-3232,37.550948358388766,127.17409536001483
548,서울,천호역,"서울특별시 강동구 천호대로 1012, 태승빌딩 (성내동)",1522-3232,37.53795191,127.1245793
549,서울,명일이마트,서울특별시 강동구 동남로75길 5 (명일동) 명일이마트별관주차장,1522-3232,37.55417877236837,127.15613409848525
550,서울,상일동역,"서울특별시 강동구 고덕로 399 (고덕동, 고덕센트럴푸르지오)",1522-3232,37.55756654027894,127.17076356349716
551,서울,천호사거리,서울특별시 강동구 올림픽로 651 (천호동),1522-3232,37.539702,127.123542
552,서울,강일역,"서울특별시 강동구 고덕로 429 (강일동), 1층",1522-3232,37.55747468801038,127.17351070838722
553,서울,올림픽공원북2문,서울특별시 강동구 강동대로 199 (성내동),1522-3232,37.5241832,127.1286775
554,서울,암사역,서울특별시 강동구 올림픽로 786 (암사동),1522-3232,37.55128201526835,127.1281050846303
555,서울,강동강일,서울특별시 강동구 아리수로93나길 54 (강일동),1522-3232,37.57219483916046,127.17494002529294
556,서울,천호대로길동,서울특별시 강동구 천호대로 1131 거산 유팰리스,1522-3232,37.534651,127.137210
557,서울,구로디지털타워,서울특별시 구로구 디지털로32길 30 (구로동),1522-3232,37.483472189,126.896856737
558,서울,오류동역,서울특별시 구로구 경인로 216 (오류동),1522-3232,37.4962155,126.8448614
559,서울,구로디지털로,"서울특별시 구로구 디지털로33길 11, 에이스테크노8차 1층 (구로동)",1522-3232,37.485699173,126.895991532
560,서울,구로에이스,"서울특별시 구로구 디지털로 285, 에이스트윈타워1차 103호 (구로동)",1522-3232,37.484233766,126.894560454
561,서울,구로하이엔드,"서울특별시 구로구 디지털로26길 5, 에이스하이엔드타워1차 103호 (구로동)",1522-3232,37.481618,126.893136
562,서울,구로호텔,"서울특별시 구로구 디지털로32길 72, 구로호텔 1층 (구로동)",1522-3232,37.4831293,126.89885909999998
563,서울,구로고척,서울특별시 구로구 경인로 387 (고척동),1522-3232,37.49706,126.86315
564,서울,구로NC,서울특별시 구로구 구로중앙로 152 (구로동) 구로NC,1522-3232,37.501219,126.882798
565,서울,구로오류DT,서울특별시 구로구 서해안로 2233 (오류동),1522-3232,37.4881292318832,126.834491889841
566,서울,구로구청,"서울특별시 구로구 가마산로 232 (구로동, 스페스큐브), B101호",1522-3232,37.49395067031256,126.88676120707717
567,서울,고척아이파크,"서울특별시 구로구 경인로43길 49 (고척동, 고척아이파크), 1층 D-101호",1522-3232,37.49930562934076,126.8582208923581
568,서울,신도림힐스테이트,서울특별시 구로구 경인로 625 (신도림동),1522-3232,37.506860026202624,126.88463805193277
569,서울,현대디큐브2F,서울특별시 구로구 경인로 662 (신도림동),1522-3232,37.509452982,126.889684147
570,서울,현대디큐브B2,서울특별시 구로구 경인로 662 (신도림동),1522-3232,37.50924828,126.889981345
571,서울,답십리역,서울특별시 동대문구 천호대로 263 (답십리동),1522-3232,37.568466,127.051106
572,서울,경희대삼거리,서울특별시 동대문구 회기로 141 (회기동),1522-3232,37.591531,127.052017
573,서울,외대정문,서울특별시 동대문구 이문로 93 (이문동),1522-3232,37.5953464,127.0590302
574,서울,신설동역,서울특별시 동대문구 왕산로 19 (신설동),1522-3232,37.5767228,127.0255446
575,서울,회기역사거리,서울특별시 동대문구 이문로 37 (회기동),1522-3232,37.590784,127.056098
576,서울,장한평역,서울특별시 동대문구 장한로 10 (장안동),1522-3232,37.562337,127.065511
577,서울,경희대,서울특별시 동대문구 경희대로 16-1 (회기동),1522-3232,37.5928812,127.05280849999997
578,서울,청량리역롯데캐슬스카이,"서울특별시 동대문구 답십리로 27 (전농동, 청량리역 롯데캐슬 SKY-L65)",1522-3232,37.579249267,127.045331071
579,서울,경희의료원,서울특별시 동대문구 경희대로 23 (회기동),1522-3232,37.5935445,127.052009
580,서울,경동1960,서울특별시 동대문구 고산자로36길 3 (제기동),1522-3232,37.5796141021494,127.038684963773
581,서울,사이버한국외대,서울특별시 동대문구 휘경로 6 (이문동),1522-3232,37.5960508006499,127.060761238087
582,서울,청량리역사,서울특별시 동대문구 왕산로 214 (전농동) 청량리역사 Connect Place6층,1522-3232,37.580565324,127.048564845
583,서울,답십리초교사거리,서울특별시 동대문구 전농로 38 (답십리동),1522-3232,37.5682540295405,127.057240883237
584,서울,장안사거리,서울특별시 동대문구 답십리로 267 (장안동),1522-3232,37.5727209002351,127.070092668638
585,서울,서울숲역,서울특별시 성동구 왕십리로 50 (성수동1가) 1층,1522-3232,37.541868967552624,127.04489904228212
586,서울,금호역,서울특별시 성동구 동호로 99 (금호동4가),1522-3232,37.54795819607987,127.01576347145759
587,서울,뚝섬역,서울특별시 성동구 아차산로 42 (성수동1가),1522-3232,37.546432,127.049042
588,서울,황학사거리,"서울특별시 성동구 왕십리로 410 (하왕십리동, 센트라스)",1522-3232,37.567598,127.023713
589,서울,성수역,서울특별시 성동구 성수이로 94 (성수동2가),1522-3232,37.543193,127.056943
590,서울,상왕십리역,서울특별시 성동구 왕십리로 382 (하왕십리동),1522-3232,37.565,127.0279
591,서울,왕십리역,서울특별시 성동구 왕십리로 326 (도선동),1522-3232,37.5627541,127.0339072
592,서울,한양대,"서울특별시 성동구 왕십리로 225 (행당동) 1,2층",1522-3232,37.55726984,127.0421649
593,서울,엔터식스,서울특별시 성동구 왕십리광장로 17 (행당동),1522-3232,37.5622,127.0381
594,서울,신금호역,서울특별시 성동구 금호로 158-1 (금호동1가) 1~5층 전체,1522-3232,37.55495378704588,127.02011077314176
595,서울,뚝섬역교차로,서울특별시 성동구 아차산로 6 (성수동1가),1522-3232,37.547754922352,127.045142362137
596,서울,왕십리역9번출구,서울특별시 성동구 고산자로 234 (행당동),1522-3232,37.5605427226347,127.035267332652
597,서울,성수,서울특별시 성동구 아차산로 104 (성수동2가),1522-3232,37.5444620830457,127.055413311106
598,서울,옥수,서울특별시 성동구 독서당로 202 (옥수동),1522-3232,37.5430298,127.0133661
599,서울,성수낙낙,서울특별시 성동구 광나루로8길 31 (성수동2가) 성수낙낙 1층 101~107호,1522-3232,37.547326,127.066367
600,서울,효창공원앞역,"서울특별시 용산구 백범로 313 (효창동, 용산 롯데캐슬 센터포레)",1522-3232,37.53897052967548,126.96313623522258
601,서울,서울역서부,서울특별시 용산구 만리재로 202 (서계동),1522-3232,37.555165,126.968446
602,서울,이태원역,서울특별시 용산구 이태원로 188 (이태원동),1522-3232,37.534273,126.994789
603,서울,한강진역R,서울특별시 용산구 이태원로 252 (한남동),1522-3232,37.53716526852496,127.00101265422607
604,서울,용산역써밋R,"서울특별시 용산구 한강대로 69 (한강로2가, 용산푸르지오써밋)",1522-3232,37.527586,126.965401
605,서울,이촌,서울특별시 용산구 이촌로 276 (이촌동),1522-3232,37.518605,126.977271
606,서울,신용산역,"서울특별시 용산구 한강대로 95 (한강로2가, 래미안용산)",1522-3232,37.528702,126.966757
607,서울,용산파크타워,"서울특별시 용산구 서빙고로 67 (용산동5가, 파크타워)",1522-3232,37.523818,126.970389
608,서울,남영동,서울특별시 용산구 한강대로 275 (갈월동),1522-3232,37.542831,126.972242
609,서울,한남동R,서울특별시 용산구 독서당로 94 (한남동),1522-3232,37.53485,127.010919
610,서울,서울타워,서울특별시 용산구 남산공원길 105 (용산동2가) YTN서울타워 1층,1522-3232,37.551102,126.988317
611,서울,서울역동자동,서울특별시 용산구 한강대로 372 (동자동),1522-3232,37.551752,126.972694
612,서울,순천향입구,서울특별시 용산구 대사관로 67 (한남동),1522-3232,37.533394,127.00563
613,서울,동빙고,서울특별시 용산구 장문로 12 (동빙고동),1522-3232,37.5290045288412,126.991762757458
614,서울,숙대입구역,서울특별시 용산구 한강대로 291 (갈월동),1522-3232,37.544225782,126.971957017
615,서울,용산아이파크몰6F,서울특별시 용산구 한강대로23길 55,1522-3232,37.5295804832797,126.964026132479
616,서울,동부이촌동,서울특별시 용산구 이촌로 198 (이촌동),1522-3232,37.52111,126.96905
617,서울,숙명여대정문,서울특별시 용산구 청파로47길 100 (청파동2가) 프라임관B1F(로비층),1522-3232,37.54474797,126.96484196
618,서울,용산해링턴스퀘어,서울특별시 용산구 서빙고로 17 (한강로3가),1522-3232,37.5265379583476,126.967362090447
619,서울,경리단길,서울특별시 용산구 회나무로 3 (이태원동),1522-3232,37.53854,126.98737
620,서울,서울역사,서울특별시 용산구 한강대로 405 (동자동) 신-101호,1522-3232,37.55415699928705,126.97179361292846
621,서울,용산리첸시아,"서울특별시 용산구 백범로 341 (원효로1가, 리첸시아 용산)",1522-3232,37.538571,126.967409
622,서울,용산전자랜드,서울특별시 용산구 청파로 74 (한강로3가),1522-3232,37.53286105987034,126.96100091132484
623,서울,용산이마트,서울특별시 용산구 한강대로23길 55 (한강로3가) 용산이마트 지하 2층,1522-3232,37.5295804832797,126.964026132479
624,서울,용산아이파크몰1F,서울특별시 용산구 한강대로23길 55 1층 (한강로3가),1522-3232,37.52872656009729,126.96447624612843
625,서울,상봉,"서울특별시 중랑구 상봉로 131 (상봉동, 상봉 듀오트리스 주상복합)",1522-3232,37.597842,127.092509
626,서울,중랑역,서울특별시 중랑구 망우로30길 3 (상봉동),1522-3232,37.5930326,127.07473579999998
627,서울,중랑구청,서울특별시 중랑구 신내로 72,1522-3232,37.60538908,127.0957558
628,서울,사가정역,서울특별시 중랑구 면목로 310,1522-3232,37.579594,127.087966
629,서울,상봉역,서울특별시 중랑구 망우로 307 (상봉동),1522-3232,37.59689,127.08647
630,서울,묵동,"서울특별시 중랑구 동일로 952 (묵동, 로프트원 태릉입구역) 1층",1522-3232,37.615368,127.076633
631,서울,망우동,서울특별시 중랑구 망우로 407 (망우동),1522-3232,37.5995083771241,127.097538751682
632,서울,양원역,서울특별시 중랑구 양원역로10길 3 (망우동),1522-3232,37.6066536267232,127.106359790053
633,서울,중화역,서울특별시 중랑구 봉화산로 35 1층,1522-3232,37.60170912407773,127.07841136432036
634,경기,리버사이드대성리DT,경기도 가평군 청평면 경춘로 258,1522-3232,37.69825440707157,127.3852165854917
635,경기,가평설악IC DT,경기도 가평군 설악면 신선봉로 14,1522-3232,37.67905252127808,127.48638178238548
636,경기,남이섬,경기도 가평군 가평읍 북한강변로 1054 북한강변로 1054,1522-3232,37.806624,127.52527
637,경기,소노캄고양,경기도 고양시 일산동구 태극로 18 (장항동),1522-3232,37.662855441267716,126.75051316953129
638,경기,일산애니골DT,경기도 고양시 일산동구 무궁화로 294 (풍동),1522-3232,37.67487449705626,126.79364390723381
639,경기,동국대일산병원,경기도 고양시 일산동구 동국로 27 (식사동),1522-3232,37.67645946275437,126.80648567004755
640,경기,일산풍동DT,경기도 고양시 일산동구 백마로 475 (풍동),1522-3232,37.662091,126.800900
641,경기,백석중앙로,경기도 고양시 일산동구 강송로 33 (백석동),1522-3232,37.6411,126.790987
642,경기,일산식사,경기도 고양시 일산동구 위시티2로11번길 31 (식사동),1522-3232,37.67817354351826,126.81203866075508
643,경기,풍산이마트,경기도 고양시 일산동구 무궁화로 237 (중산동),1522-3232,37.673769,126.786883
644,경기,백석역DT,"경기도 고양시 일산동구 중앙로 1054, 1층 (백석동)",1522-3232,37.6439377,126.7873856
645,경기,백석,경기도 고양시 일산동구 중앙로 1059 (백석동),1522-3232,37.643888,126.786153
646,경기,라페스타광장,경기도 고양시 일산동구 중앙로1275번길 38-9 (장항동),1522-3232,37.659671,126.770161
647,경기,일산백마,경기도 고양시 일산동구 일산로 237 (마두동),1522-3232,37.6570742,126.7880695
648,경기,웨스턴돔B,경기도 고양시 일산동구 정발산로 24 (장항동),1522-3232,37.654405198942015,126.77330239554712
649,경기,마두역,경기도 고양시 일산동구 중앙로 1191 (장항동),1522-3232,37.652965,126.776768
650,경기,일산동구청,경기도 고양시 일산동구 정발산로 38 (장항동),1522-3232,37.65665,126.772598
651,경기,고양대로DT,경기도 고양시 일산동구 고양대로 910 (풍동),1522-3232,37.677601,126.7961618
652,경기,일산하늘마을,경기도 고양시 일산동구 중산로 61 (중산동),1522-3232,37.677568477730844,126.78239696017053
653,경기,과천DT,경기도 과천시 중앙로 277 (중앙동),1522-3232,37.43929087256856,126.99381334849441
654,경기,과천이마트,경기도 과천시 별양상가3로 11 이마트 1층(별양동),1522-3232,37.4264940536451,126.991639556541
655,경기,과천,"경기도 과천시 중앙로 129, 고려빌딩 1층 (중앙동)",1522-3232,37.428210445654,126.99101514264228
656,경기,과천지식정보타운,경기도 과천시 과천대로7길 12 (갈현동),1522-3232,37.413536064557476,126.98030268718213
657,경기,광명하안대로,경기도 광명시 범안로 1036 (하안동),1522-3232,37.4616837,126.8783697
658,경기,철산역,경기도 광명시 철산로 15 (철산동),1522-3232,37.476426639601286,126.86779457770173
659,경기,광명역,"경기도 광명시 양지로 16 (일직동, 광명역써밋플레이스)",1522-3232,37.41674051514128,126.88200879701506
660,경기,광명소하DT,경기도 광명시 오리로 363 (소하동),1522-3232,37.4348391789342,126.8792685970431
661,경기,광명소하,경기도 광명시 금하로 464 (소하동),1522-3232,37.448660,126.883959
662,경기,광명사거리역,경기도 광명시 광명로 907 (광명동),1522-3232,37.479895,126.854325
663,경기,철산로데오,경기도 광명시 디지털로 17 (철산1동) 가림빌딩,1522-3232,37.4739663,126.86935070000004
664,경기,광명하안,경기도 광명시 범안로 1060 (하안동),1522-3232,37.462605,126.880577
665,경기,광명철산,경기도 광명시 오리로 865 (철산동),1522-3232,37.475304,126.866126
666,경기,광명AK,"경기도 광명시 양지로 17 (일직동), 1층 일부",1522-3232,37.418831962659624,126.8831012995512
667,경기,광명롯데몰,경기도 광명시 일직로 17 (일직동) 롯데아울렛 1층,1522-3232,37.42311336574412,126.88469887231989
668,경기,경기광주쌍령DT,경기도 광주시 경충대로 1445 (쌍령동),1522-3232,37.3987506,127.2733178
669,경기,경기광주신현DT,경기도 광주시 오포읍 태재로 37,1522-3232,37.3598817267976,127.15315140478435
670,경기,경기광주송정DT,경기도 광주시 경안천로 118 (송정동),1522-3232,37.416384,127.27257
671,경기,경기광주,경기도 광주시 광주대로 35 (경안동),1522-3232,37.4097851,127.26021279999997
672,경기,경기광주초월역DT,경기도 광주시 초월읍 경충대로 1084,1522-3232,37.374402,127.298258
673,경기,경기광주IC DT,경기도 광주시 경충대로 1879 (장지동),1522-3232,37.4056810278331,127.231238126345
674,경기,곤지암IC DT,경기도 광주시 곤지암읍 경충대로 765 경충대로 765,1522-3232,37.355682,127.325248
675,경기,경기광주태전,경기도 광주시 태전중앙2길 21 (태전동),1522-3232,37.3825343644297,127.233160845091
676,경기,구리갈매역,"경기도 구리시 경춘북로 252 (갈매동, 갈매역아이파크)",1522-3232,37.633967,127.115944
677,경기,구리돌다리,"경기도 구리시 검배로 5, 우진빌딩 (수택동)",1522-3232,37.600585,127.141922
678,경기,구리갈매DT,경기도 구리시 갈매순환로 148 (갈매동) 1-2층,1522-3232,37.63237,127.1226
679,경기,구리장자호수,경기도 구리시 장자대로 84 (수택동),1522-3232,37.587252,127.139874
680,경기,구리인창DT,경기도 구리시 건원대로 53 (인창동),1522-3232,37.60568,127.13928
681,경기,구리수택,"경기도 구리시 체육관로 44 (수택동)1-2층 , 옥외공간",1522-3232,37.588465,127.138136
682,경기,구리토평DT,경기도 구리시 벌말로 88 (토평동),1522-3232,37.584632,127.147385
683,경기,산본사거리,경기도 군포시 고산로701,1522-3232,37.372658,126.935735
684,경기,산본,경기도 군포시 산본로343번길 9 (산본동) 1층,1522-3232,37.36061352,126.9317436
685,경기,산본역,"경기도 군포시 번영로 497, 금화프라자 1층 (산본동)",1522-3232,37.3584131,126.9321916
686,경기,산본동,"경기도 군포시 산본로 398, 태주빌딩 2층",1522-3232,37.365491,126.929426
687,경기,금정AK,"경기도 군포시 엘에스로 143 (금정동, 힐스테이트 금정역), AK플라자 4층 일부",1522-3232,37.372279107122,126.94486272941
688,경기,산본역서부사거리,경기도 군포시 번영로 485 (산본동) 롯데피트인 산본 1층 일부,1522-3232,37.3578052964351,126.93066890189
689,경기,다산지금,경기도 남양주시 다산지금로 139 (다산동),1522-3232,37.6005424,127.174302
690,경기,남양주연평DT,경기도 남양주시 진접읍 해밀예당1로 27,1522-3232,37.71152699000976,127.18552784928377
691,경기,다산진건,경기도 남양주시 다산중앙로123번길 22-26 (다산동) 123호~128호,1522-3232,37.624813,127.152582
692,경기,도농역,경기도 남양주시 미금로 239 (다산동),1522-3232,37.611129,127.164199
693,경기,남양주진접DT,경기도 남양주시 진접읍 금강로 1477,1522-3232,37.72288064054035,127.19029743229571
694,경기,리버사이드팔당DT,경기도 남양주시 와부읍 경강로 772,1522-3232,37.567114,127.228362
695,경기,별내불암로,경기도 남양주시 별내5로5번길 15 (별내동),1522-3232,37.650317,127.112364
696,경기,평내DT,경기도 남양주시 경춘로 1269,1522-3232,37.6477605,127.23469380000006
697,경기,별내,경기도 남양주시 별내중앙로 64 1-2층,1522-3232,37.6479682,127.1233987
698,경기,평내호평역,"경기도 남양주시 늘을1로16번길 25, 성보빌딩 (호평동)",1522-3232,37.6540359,127.24287989999993
699,경기,진접역,경기도 남양주시 진접읍 해밀예당1로235번길 3-5,1522-3232,37.7209,127.2033
700,경기,더북한강R,경기도 남양주시 화도읍 북한강로 1098,1522-3232,37.61247933285255,127.34202120989393
701,경기,남양주화도DT,경기도 남양주시 화도읍 수레로 1137 1~2층,1522-3232,37.6389955,127.3033633
702,경기,다산DT,경기도 남양주시 다산중앙로 19번길5 (다산동),1522-3232,37.61424,127.15537
703,경기,남양주묵현DT,경기도 남양주시 화도읍 비룡로 122,1522-3232,37.6631,127.30263
704,경기,다산이마트,"경기도 남양주시 도농로 24 (다산동, 부영애시앙)",1522-3232,37.60868,127.15842
705,경기,별내별가람역,경기도 남양주시 덕송2로 62 (별내동),1522-3232,37.6680038,127.116959
706,경기,남양주삼패,경기도 남양주시 경강로 384 (삼패동)1-2층 옥탑,1522-3232,37.59187625063271,127.19956229624581
707,경기,남양주행정타운,경기도 남양주시 경춘로 498 (다산동),1522-3232,37.6107558,127.1681919
708,경기,판교유스페이스,경기도 성남시 분당구 대왕판교로 660 (삼평동),1522-3232,37.401270,127.107533
709,경기,판교알파돔타워,경기도 성남시 분당구 판교역로 152 (백현동),1522-3232,37.3941783,127.1106448
710,경기,판교아비뉴프랑R,"경기도 성남시 분당구 동판교로177번길 25 (삼평동, 판교 호반 써밋 플레이스)",1522-3232,37.3972109045547,127.113392362314
711,경기,야탑터미널,경기도 성남시 분당구 성남대로925번길 16 (야탑동),1522-3232,37.413494,127.128425
712,경기,분당이매,경기도 성남시 분당구 이매로 15 (이매동),1522-3232,37.39504,127.122363
713,경기,분당율동공원,경기도 성남시 분당구 새마을로175번길 4 (율동),1522-3232,37.38385,127.149963
714,경기,정자동,경기도 성남시 분당구 정자로 82 (정자동),1522-3232,37.363290,127.114074
715,경기,판교알파돔시티,"경기도 성남시 분당구 판교역로 145 타워2동 1층, 138~142호 (백현동530, 알파리움)",1522-3232,37.394457574463,127.109362231264
716,경기,서판교,경기도 성남시 분당구 운중로 132 (운중동),1522-3232,37.39142336810393,127.07766773828763
717,경기,판교브릿지타워,경기도 성남시 분당구 판교로 227번길 6 (삼평동),1522-3232,37.403323671,127.099085906
718,경기,판교역로,경기도 성남시 분당구 판교역로 192번길 14 (삼평동),1522-3232,37.39731,127.111294
719,경기,서현,경기도 성남시 분당구 황새울로360번길 19 (서현동) 금화빌딩,1522-3232,37.38600976659212,127.12593763355153
720,경기,수내로,경기도 성남시 분당구 수내로46번길 12 (수내동) 코아빌딩,1522-3232,37.380487064162686,127.11659357638696
721,경기,정자역,"경기도 성남시 분당구 성남대로343번길 12-2 (정자동), 1~2층",1522-3232,37.36682377,127.1067347
722,경기,분당구청,경기도 성남시 분당구 분당로 43 (서현동),1522-3232,37.38411236228278,127.12016448946295
723,경기,뉴코아야탑,"경기도 성남시 분당구 야탑로81번길 11, 뉴코아 야탑점 아울렛 1층 (야탑동)",1522-3232,37.41041291,127.1273
724,경기,미금역,경기도 성남시 분당구 돌마로 43 (금곡동) 메디파크빌딩,1522-3232,37.350318,127.106655
725,경기,수내,"경기도 성남시 분당구 황새울로 234, 분당트라팰리스 (수내동)",1522-3232,37.379601356964855,127.11475179628877
726,경기,정자상떼뷰,"경기도 성남시 분당구 정자일로213번길 18 (정자동, 성원상떼뷰리젠시)",1522-3232,37.3700972411991,127.105680374927
727,경기,서현미래에셋,"경기도 성남시 분당구 황새울로359번길 11, 미래에셋빌딩 1층 (서현동)",1522-3232,37.388005960455075,127.12339460130116
728,경기,야탑글라스,경기도 성남시 분당구 성남대로916번길 11 (야탑동),1522-3232,37.410845,127.129806
729,경기,정자,"경기도 성남시 분당구 정자일로 166, SPG센터 (정자동)",1522-3232,37.36487523071937,127.10631085942872
730,경기,분당서울대병원4,"경기도 성남시 분당구 구미로173번길 82, 분당서울대학교병원 신관 4층 (구미동)",1522-3232,37.35104056947326,127.12417774553253
731,경기,분당서울대병원1,"경기도 성남시 분당구 구미로173번길 82, 분당서울대학교병원 신관 1층 (구미동)",1522-3232,37.35104056947326,127.12417774553253
732,경기,서현N타운,경기도 성남시 분당구 황새울로335번길 5 (서현동),1522-3232,37.38591695629877,127.12207568328725
733,경기,서현역,"경기도 성남시 분당구 서현로210번길 20, 1층 (서현동)",1522-3232,37.385874436862146,127.12397263542193
734,경기,오리역,"경기도 성남시 분당구 성남대로 32, 1층 (구미동)",1522-3232,37.338617,127.109225
735,경기,분당정자,"경기도 성남시 분당구 성남대로 393, 두산위브파빌리온 1층 (정자동)",1522-3232,37.37190496701959,127.10688526376881
736,경기,수내역,"경기도 성남시 분당구 백현로101번길 30, 1-2층 (수내동)",1522-3232,37.37775755935278,127.1136650918293
737,경기,정자아데나,경기도 성남시 분당구 성남대로 275 (정자동),1522-3232,37.3603282545579,127.107743660786
738,경기,분당이마트,경기도 성남시 분당구 불정로 134 (정자동),1522-3232,37.35906170927517,127.12006527833034
739,경기,판교H스퀘어,"경기도 성남시 분당구 판교역로 231, 에이치스퀘어 (삼평동)",1522-3232,37.4012201420784,127.108925941221
740,경기,오리역삼거리,경기도 성남시 분당구 성남대로 45 (구미동),1522-3232,37.339973519618624,127.10829010736299
741,경기,판교HIPEX,"경기도 성남시 분당구 판교역로 230, 판교 삼환 HIPEX (삼평동)",1522-3232,37.401209,127.110666
742,경기,판교도서관,경기도 성남시 분당구 운중로 251 (판교동),1522-3232,37.38955136653922,127.09090905712297
743,경기,네이버1784,경기도 성남시 분당구 정자일로 95 (정자동) 네이버1784 2층,1522-3232,37.35911160133258,127.10554080383934
744,경기,미금역2001아울렛,경기도 성남시 분당구 미금일로154번길 20 (구미동),1522-3232,37.3490444,127.1074534
745,경기,분당서현역AK R,경기도 성남시 분당구 황새울로360번길 42 (서현동),1522-3232,37.38459130415094,127.12318293380426
746,경기,판교역힐스테이트,경기도 성남시 분당구 판교역로 136 (백현동) 판교힐테이트 1092~1095호,1522-3232,37.392433302224404,127.11094874881172
747,경기,수내역1번출구,경기도 성남시 분당구 황새울로258번길 41 (수내동) 1~2층,1522-3232,37.378515,127.11579
748,경기,HD현대R&D센터,경기도 성남시 분당구 분당수서로 477 (정자동),1522-3232,37.376477723639674,127.10430060894165
749,경기,분당궁내DT,경기도 성남시 분당구 대왕판교로 302 (궁내동),1522-3232,37.370636,127.102071
750,경기,야탑역사거리,경기도 성남시 분당구 야탑로 102 (야탑동),1522-3232,37.4095,127.1301
751,경기,남한산성입구역,경기도 성남시 중원구 산성대로426번길 2 (금광동),1522-3232,37.449705,127.159463
752,경기,단대오거리역,경기도 성남시 중원구 산성대로 340-1 (중앙동),1522-3232,37.4433283,127.15457659999993
753,경기,성남모란DT,경기도 성남시 중원구 둔촌대로 131 (성남동),1522-3232,37.42916075591734,127.13344319390397
754,경기,수원금곡,경기도 수원시 권선구 금곡로 219 (금곡동),1522-3232,37.27491,126.954432
755,경기,수원세류DT,경기도 수원시 권선구 권선로544번길 1 (세류동),1522-3232,37.262923,127.011208
756,경기,수원호매실,"경기도 수원시 권선구 서수원로577번길 305 (금곡동, 수원모아미래도센트럴타운2단지)",1522-3232,37.274375,126.941263
757,경기,수원권선DT,경기도 수원시 권선구 매송고색로 543 (오목천동),1522-3232,37.246345,126.964025
758,경기,수원권선,경기도 수원시 권선구 동수원로177번길 40 (권선동),1522-3232,37.246668,127.030958
759,경기,수원이마트,경기도 수원시 권선구 경수대로 270 (권선동) 2층,1522-3232,37.25007961039053,127.02128059777506
760,경기,수원세류역DT,경기도 수원시 권선구 경수대로 185 (세류동),1522-3232,37.243791,127.017207
761,경기,타임빌라스수원,경기도 수원시 권선구 세화로 134 (서둔동),1522-3232,37.2648676309542,126.998455502179
762,경기,수원고색동DT,경기도 수원시 권선구 서부로1390번길 150 (고색동),1522-3232,37.239320254017244,126.98871882924855
763,경기,수원탑동DT,경기도 수원시 권선구 서부로 1769 (탑동),1522-3232,37.26711903511241,126.9713639327551
764,경기,수원연무DT,경기도 수원시 장안구 창룡대로 171 (연무동),1522-3232,37.29217464098265,127.02887111657206
765,경기,북수원IC DT,경기도 수원시 장안구 경수대로 1038 (파장동),1522-3232,37.307776,126.99833
766,경기,수원천천,경기도 수원시 장안구 덕영대로535번길 46 (천천동),1522-3232,37.297286,126.982671
767,경기,수원성균관대,"경기도 수원시 장안구 서부로 2131, 1층 4,5,6호 2층1,2호 (율전동)",1522-3232,37.298935,126.971577
768,경기,스타필드수원6F,경기도 수원시 장안구 수성로 175 (정자동),1522-3232,37.28757355541144,126.99155345711115
769,경기,스타필드수원1F,경기도 수원시 장안구 수성로 175 (정자동),1522-3232,37.28712303932181,126.99159861557194
770,경기,수원정자사거리DT,경기도 수원시 장안구 수성로 291 (정자동),1522-3232,37.2911959629684,127.004005026146
771,경기,수원종합운동장,경기도 수원시 장안구 송원로 71 (송죽동),1522-3232,37.30131994,127.00879841
772,경기,수원조원DT,경기도 수원시 장안구 경수대로 831 (조원동),1522-3232,37.2952372155505,127.015769907921
773,경기,수원경수인계DT,경기도 수원시 팔달구 경수대로 499 (인계동),1522-3232,37.270568,127.027566
774,경기,수원KBS DT,경기도 수원시 팔달구 권광로 265 (인계동),1522-3232,37.271122,127.035213
775,경기,수원인계DT,경기도 수원시 팔달구 인계로94번길 3 (인계동),1522-3232,37.267938,127.027948
776,경기,수원이비스,경기도 수원시 팔달구 권광로 132 (인계동),1522-3232,37.25909912273708,127.03115533034979
777,경기,수원매산,경기도 수원시 팔달구 매산로 11 (매산로1가),1522-3232,37.2673815171216,127.002694505473
778,경기,동수원DT,경기도 수원시 팔달구 중부대로 161 (우만동),1522-3232,37.2781099,127.03394960000003
779,경기,수원인계,경기도 수원시 팔달구 권광로 199 (인계동),1522-3232,37.265499,127.032902
780,경기,아주대,경기도 수원시 팔달구 월드컵로 205 (우만동),1522-3232,37.279696,127.04334
781,경기,수원성빈센트병원,경기도 수원시 팔달구 중부대로 93 (지동),1522-3232,37.27786636322684,127.02795232371083
782,경기,수원화성행궁,경기도 수원시 팔달구 정조로841번길 10 (신풍동),1522-3232,37.283349,127.015668
783,경기,수원나혜석거리,경기도 수원시 팔달구 권광로188번길 17 (인계동),1522-3232,37.264255680068,127.034163000188
784,경기,수원경인일보,경기도 수원시 팔달구 효원로 299 (인계동),1522-3232,37.2614640249992,127.03463081706
785,경기,수원역AK R,경기도 수원시 팔달구 덕영대로 924 (매산로1가),1522-3232,37.2668319123291,127.000067643997
786,경기,시흥대야DT,경기도 시흥시 뱀내장터로 27 (대야동),1522-3232,37.441713,126.787757
787,경기,배곧아브뉴프랑,경기도 시흥시 서울대학로278번길 34 (정왕동),1522-3232,37.36811,126.72921
788,경기,시흥대야동,경기도 시흥시 비둘기공원7길 51 (대야동),1522-3232,37.441740,126.791869
789,경기,배곧신도시,경기도 시흥시 서울대학로278번길 43-13 (정왕동),1522-3232,37.36926945415259,126.73036074295075
790,경기,시흥대야,경기도 시흥시 비둘기공원로 10 (대야동),1522-3232,37.443912,126.790755
791,경기,시흥P.아울렛 3F,경기도 시흥시 서해안로 699 (정왕동),1522-3232,37.379519224282355,126.7366412612303
792,경기,시흥P.아울렛 1F,경기도 시흥시 서해안로 699 (정왕동),1522-3232,37.379960444971914,126.73651551866105
793,경기,시화로데오,경기도 시흥시 중심상가2길 20-5 (정왕동),1522-3232,37.344630634101044,126.73724279219881
794,경기,시흥월곶,경기도 시흥시 월곶중앙로58번길 5-6 (월곶동),1522-3232,37.389462,126.73886
795,경기,물왕호수,경기도 시흥시 동서로857번길 6 (물왕동),1522-3232,37.382917,126.840701
796,경기,시흥장현,경기도 시흥시 황고개로 530 (장곡동),1522-3232,37.3782498,126.7890783
797,경기,시흥능곡역,경기도 시흥시 장현능곡로 155 (능곡동),1522-3232,37.37064104024727,126.80749692444117
798,경기,시흥목감DT,경기도 시흥시 동서로 950 (조남동),1522-3232,37.37806836103922,126.84992501036451
799,경기,시흥은계,경기도 시흥시 은계번영길 9 (은행동),1522-3232,37.4375150988434,126.80163294672
800,경기,안산고잔센트럴타워,경기도 안산시 단원구 고잔로 72 (고잔동),1522-3232,37.31905063872096,126.83445383032479
801,경기,안산상공회의소,경기도 안산시 단원구 적금로 120 (고잔동),1522-3232,37.318601652961206,126.82609788533867
802,경기,고잔이마트,경기도 안산시 단원구 원포공원1로 46 (초지동) 이마트,1522-3232,37.303062006685224,126.8119780385466
803,경기,안산문화광장,"경기도 안산시 단원구 광덕대로 154, ,771-4 로데오타운1층 (고잔동)",1522-3232,37.30993328883379,126.83046363347107
804,경기,안산중앙,"경기도 안산시 단원구 고잔로 102, 스타타워 1층 (고잔동)",1522-3232,37.318631543239576,126.83762209223218
805,경기,안산중앙역,경기도 안산시 단원구 중앙대로 907 (고잔동),1522-3232,37.317081782690096,126.83763388713413
806,경기,안산트레이더스,경기도 안산시 단원구 중앙대로 397 (신길동),1522-3232,37.33083975339962,126.78489040336497
807,경기,대부도DT,경기도 안산시 단원구 대선로 35 (대부북동),1522-3232,37.26842580152328,126.57015106385668
808,경기,안산물의광장,경기도 안산시 단원구 광덕대로 187 (고잔동),1522-3232,37.31320948847559,126.8295509836967
809,경기,안성석정DT,경기도 안성시 중앙로 308 (석정동),1522-3232,37.010463177925295,127.26208837463214
810,경기,안성공도DT,경기도 안성시 공도읍 서동대로 4489,1522-3232,37.009411,127.200801
811,경기,안성서동대로DT,경기도 안성시 공도읍 서동대로 4314 서동대로 4314,1522-3232,37.0048167672848,127.182089433237
812,경기,안성계동DT,경기도 안성시 안성맞춤대로 805 (계동),1522-3232,36.9860648687646,127.26783707510753
813,경기,스타필드안성R,경기도 안성시 공도읍 서동대로 3930-39,1522-3232,36.9939948,127.146598
814,경기,호계지식산업센터,경기도 안양시 동안구 엘에스로 122 (호계동) 118~123호,1522-3232,37.3725193,126.9487254
815,경기,평촌역DT,경기도 안양시 동안구 시민대로 373 (관양동),1522-3232,37.396509,126.971235
816,경기,안양범계,경기도 안양시 동안구 시민대로 206 (호계동),1522-3232,37.3916919774004,126.953778645045
817,경기,안양운동장사거리DT,경기도 안양시 동안구 관악대로 234 (비산동),1522-3232,37.40111,126.949208
818,경기,범계역,경기도 안양시 동안구 시민대로 180 (호계동),1522-3232,37.389849,126.949818
819,경기,안양호계DT,경기도 안양시 동안구 엘에스로 27 (호계동),1522-3232,37.366561,126.956011
820,경기,평촌호계,경기도 안양시 동안구 평촌대로 123 (호계동),1522-3232,37.38308987215936,126.9598478484914
821,경기,평촌역사거리,경기도 안양시 동안구 시민대로 311 금강스마트 빌딩 1층(관양동1746),1522-3232,37.39594913421712,126.96509237874383
822,경기,안양비산DT,경기도 안양시 동안구 경수대로 821 (비산동),1522-3232,37.3925432775419,126.942881814476
823,경기,평촌아크로,"경기도 안양시 동안구 시민대로 230, 평촌아크로타워상가동 2층 8호 (관양동)",1522-3232,37.39254935682436,126.95629686455613
824,경기,범계로데오,경기도 안양시 동안구 평촌대로 223 (호계동),1522-3232,37.391494,126.955122
825,경기,인덕원역,"경기도 안양시 동안구 흥안대로 519, 아이퍼스트타워 1~2층 (관양동)",1522-3232,37.40026330315309,126.9763137476872
826,경기,안양덕현DT,경기도 안양시 동안구 흥안대로 139 (호계동),1522-3232,37.3713017997558,126.960219576803
827,경기,안양이마트,경기도 안양시 동안구 관악대로 104 (비산동),1522-3232,37.398521,126.935224
828,경기,안양역R,경기도 안양시 만안구 만안로 232 (안양동) 안양민자역사 1층 001호,1522-3232,37.401964,126.922661
829,경기,명학역,"경기도 안양시 만안구 안양로 96 128,129,130,132,133,134,135,136호",1522-3232,37.3837071172439,126.93468729534386
830,경기,안양역,경기도 안양시 만안구 장내로 149번길 (안양동)53,1522-3232,37.4002845,126.92216770000004
831,경기,안양석수DT,경기도 안양시 만안구 경수대로 1397 (석수동),1522-3232,37.4312614,126.9033382
832,경기,안양일번가,경기도 안양시 만안구 안양로292번길 36 (안양동),1522-3232,37.39919046,126.9236856
833,경기,양주옥정타운,경기도 양주시 회천남로 76 (옥정동),1522-3232,37.81844494596487,127.09396234642375
834,경기,양주송추DT,경기도 양주시 장흥면 호국로 528,1522-3232,37.717529,126.973093
835,경기,양주덕정역DT,경기도 양주시 독바위로 35 (덕정동),1522-3232,37.83825507053937,127.06299344913876
836,경기,양주고읍DT,경기도 양주시 고덕로351 (고읍동),1522-3232,37.8035448078233,127.079391925805
837,경기,양주광사DT,경기도 양주시 부흥로 1872 (광사동),1522-3232,37.7907464236245,127.072790578691
838,경기,양주고읍,경기도 양주시 고읍남로 20 (광사동),1522-3232,37.79460292264882,127.07917798915788
839,경기,가나아트파크,경기도 양주시 장흥면 권율로 117,1522-3232,37.7263808,126.9500801
840,경기,양주옥정공원,경기도 양주시 옥정동로7길 30 (옥정동),1522-3232,37.8212148140616,127.09744134144607
841,경기,양주회정DT,경기도 양주시 평화로 1687 (회정동),1522-3232,37.83958361508239,127.0547041749784
842,경기,연천전곡DT,경기도 연천군 전곡읍 평화로 452,1522-3232,38.0118586850205,127.06868441533176
843,경기,북오산IC DT,경기도 오산시 문시로 109-2 (외삼미동),1522-3232,37.189809,127.058997
844,경기,오산세교,경기도 오산시 수청로 193 (금암동),1522-3232,37.176779,127.045583
845,경기,오산갈곶DT,"경기도 오산시 경기대로 50, B동 (갈곶동)",1522-3232,37.129185998855284,127.07131092131328
846,경기,오산IC DT,경기도 오산시 원동로 74 (원동),1522-3232,37.14269620513025,127.07685288946868
847,경기,오산시청,경기도 오산시 운천로 61,1522-3232,37.1486248,127.0741288
848,경기,오산부산동DT,경기도 오산시 경기동로 185 (부산동),1522-3232,37.15899425341184,127.09242788878642
849,경기,오산원동DT,경기도 오산시 경기대로 218 (원동),1522-3232,37.1441810626901,127.073876453349
850,경기,서동탄DT,경기도 오산시 외삼미로 162-48 (외삼미동),1522-3232,37.197476,127.065097
851,경기,오산수청DT,경기도 오산시 경기대로 445 (수청동),1522-3232,37.16298068889096,127.0666928732513
852,경기,용인세브란스병원,경기도 용인시 기흥구 동백죽전대로 363 (중동),1522-3232,37.271092,127.147639
853,경기,용인상하DT,경기도 용인시 기흥구 중부대로 771 (상하동),1522-3232,37.259778,127.142453
854,경기,용인언남,경기도 용인시 기흥구 구성로 120 (언남동),1522-3232,37.29262880835632,127.12206858068447
855,경기,기흥역AK R,"경기도 용인시 기흥구 기흥역로 63 (구갈동, 기흥역 힐스테이트)",1522-3232,37.2746544,127.1165616
856,경기,용인고매동,경기도 용인시 기흥구 신고매로 59 (고매동) 리빙파워센터 지하1층,1522-3232,37.22317532265088,127.1141622136813
857,경기,용인보라DT,경기도 용인시 기흥구 용구대로 1877 (보라동),1522-3232,37.255575,127.104577
858,경기,용인동백DT,경기도 용인시 기흥구 어정로 102 (상하동),1522-3232,37.274595,127.141221
859,경기,용인마북DT,경기도 용인시 기흥구 용구대로 2330,1522-3232,37.2947324,127.11029259999998
860,경기,용인기흥구청,경기도 용인시 기흥구 구갈로 71-18 (신갈동),1522-3232,37.2808075,127.1108768
861,경기,수원IC DT,경기도 용인시 기흥구 중부대로 56,1522-3232,37.2672407380298,127.074871029992
862,경기,용인보정,"경기도 용인시 기흥구 죽전로 20, 죽전누리에뜰상가 (보정동)",1522-3232,37.320017,127.11084
863,경기,구성트레이더스,경기도 용인시 기흥구 용구대로 2457 (보정동),1522-3232,37.305434,127.105468
864,경기,강남대,"경기도 용인시 기흥구 강남로 3, 강남&플러스 1층(구갈동)",1522-3232,37.2710542,127.1259993
865,경기,용인하갈DT,경기도 용인시 기흥구 덕영대로 1800 (하갈동),1522-3232,37.2492977286623,127.087735450111
866,경기,용인흥덕DT,경기도 용인시 기흥구 흥덕1로 85 (영덕동),1522-3232,37.274840655549575,127.07182016022024
867,경기,삼성디스플레이SDR,경기도 용인시 기흥구 삼성로 1 (농서동),1522-3232,37.225417,127.087317
868,경기,기흥테라타워,"경기도 용인시 기흥구 서천로201번길 11 (농서동) 125, 126, 127, 128호",1522-3232,37.230764,127.071
869,경기,용인보정DT,경기도 용인시 기흥구 용구대로2469번길 165 (보정동),1522-3232,37.321478238,127.104160923
870,경기,한국민속촌DT,경기도 용인시 기흥구 사은로 110 (보라동),1522-3232,37.255933,127.116911
871,경기,동백이마트,경기도 용인시 기흥구 동백죽전대로 444 (중동),1522-3232,37.2781451,127.1514253
872,경기,용인신갈DT,경기도 용인시 기흥구 중부대로 395 (신갈동),1522-3232,37.27277694332577,127.11031628466871
873,경기,용인김량장DT,경기도 용인시 처인구 백옥대로 1174 (김량장동),1522-3232,37.239640424,127.21056759
874,경기,용인에버랜드,경기도 용인시 처인구 포곡읍 에버랜드로 199,1522-3232,37.294988424,127.203199216
875,경기,용인시청DT,경기도 용인시 처인구 중부대로 1130,1522-3232,37.24029,127.170935
876,경기,용인처인구청,경기도 용인시 처인구 금령로 60 (김량장동),1522-3232,37.234764,127.202928
877,경기,용인양지IC DT,경기도 용인시 처인구 양지면 중부대로 2258,1522-3232,37.23332323108787,127.2917092047991
878,경기,용인한숲시티,경기도 용인시 처인구 남사읍 처인성로 729,1522-3232,37.152464,127.173575
879,경기,용인마평DT,경기도 용인시 처인구 금령로 188 (마평동),1522-3232,37.2336627,127.2168107
880,경기,용인처인휴게소,경기도 용인시 처인구 모현읍 곡현로619번길 36,1522-3232,37.340406,127.219305
881,경기,용인역북,경기도 용인시 처인구 명지로 41 (역북동),1522-3232,37.232254,127.188747
882,경기,용인고림DT,경기도 용인시 처인구 고림로 124 (고림동),1522-3232,37.2439528602795,127.218062907418
883,경기,용인모현DT,경기도 용인시 처인구 모현읍 백옥대로 2529,1522-3232,37.349014,127.249316
884,경기,용인IC DT,경기도 용인시 처인구 백옥대로 1305 (유방동),1522-3232,37.25140976,127.212133287
885,경기,의왕청계DT,경기도 의왕시 안양판교로 246 (청계동),1522-3232,37.3883721704744,126.998385219178
886,경기,의왕포일,경기도 의왕시 안양판교로 89 (포일동),1522-3232,37.3960433533346,126.98435027585213
887,경기,의왕현대모비스,경기도 의왕시 철도박물관로 37 (삼동),1522-3232,37.32469579167545,126.95196981011368
888,경기,의왕내손,경기도 의왕시 내손중앙로 4 (내손동) 벨포레스퀘어 G111~116호,1522-3232,37.389126752962,126.976737889453
889,경기,의왕롯데몰,"경기도 의왕시 바라산로 1 (학의동), GF층 일부",1522-3232,37.37526646974715,127.00863136446662
890,경기,의왕삼동DT,경기도 의왕시 덕영대로 182 (삼동),1522-3232,37.316653,126.957363
891,경기,의정부예술의전당DT,경기도 의정부시 경의로 31 (의정부동),1522-3232,37.7330525,127.0388483
892,경기,의정부신곡DT,경기도 의정부시 회룡로 269 (신곡동),1522-3232,37.726826,127.064015
893,경기,의정부용현DT,경기도 의정부시 시민로 468 (용현동),1522-3232,37.73038983553,127.084245521194
894,경기,의정부공원,경기도 의정부시 평화로 540 (의정부동),1522-3232,37.740103,127.047531
895,경기,의정부민락,경기도 의정부시 천보로 68 (민락동),1522-3232,37.7454512032732,127.093963593616
896,경기,의정부회룡역DT,경기도 의정부시 평화로 341 (호원동),1522-3232,37.722373,127.047477
897,경기,의정부녹양DT,경기도 의정부시 비우로 119 (가능동),1522-3232,37.758477,127.040289
898,경기,의정부금오,"경기도 의정부시 청사로48번길 7, 대송프라자 (금오동)",1522-3232,37.7530086961915,127.070461426623
899,경기,신세계의정부2F,"경기도 의정부시 평화로 525, 신세계백화점 2층 (의정부동)",1522-3232,37.73828755664889,127.04635329209178
900,경기,신세계의정부6F,"경기도 의정부시 평화로 525, 신세계백화점 6층 (의정부동)",1522-3232,37.737483674150624,127.04575717895149
901,경기,의정부송산역DT,경기도 의정부시 충의로 95 (용현동),1522-3232,37.740164230224,127.085685890206
902,경기,의정부민락타운,경기도 의정부시 오목로 196 (민락동),1522-3232,37.744429,127.098713
903,경기,의정부장암DT,경기도 의정부시 동일로 114 (장암동),1522-3232,37.69925,127.05465
904,경기,의정부이마트,경기도 의정부시 민락로 210 (민락동),1522-3232,37.7432268,127.1025002
905,경기,이천증포DT,경기도 이천시 이섭대천로 1445 (증포동),1522-3232,37.29660399999999,127.45729200000005
906,경기,이천사음DT,경기도 이천시 경충대로 3045 (사음동),1522-3232,37.299106,127.407841
907,경기,이천하이닉스,"경기도 이천시 부발읍 경충대로 2100 외 101호, 102호, 201호",1522-3232,37.25251,127.489933
908,경기,이천터미널,경기도 이천시 중리천로 84 (중리동),1522-3232,37.278191,127.446323
909,경기,이천IC DT,"경기도 이천시 부발읍 경충대로 2183 신하리 547외 6필지(547, 548-2, 3, 4, 5, 550-7,8)",1522-3232,37.257790775086,127.48291537454
910,경기,이천송정DT,경기도 이천시 증신로 285 (송정동),1522-3232,37.296100682031,127.439629554001
911,경기,포천DT,경기도 포천시 호국로 925 (선단동),1522-3232,37.84842935479925,127.16181992045676
912,경기,광릉수목원,경기도 포천시 소흘읍 죽엽산로 655,1522-3232,37.7765034236257,127.165247073124
913,경기,포천호국로DT,경기도 포천시 소흘읍 호국로 246,1522-3232,37.79653392162362,127.12724157214106
914,경기,포천내촌DT,경기도 포천시 내촌면 금강로 2064 (내촌면),1522-3232,37.7632407781611,127.225236251822
915,경기,하남미사DT,경기도 하남시 미사강변남로 35 (망월동),1522-3232,37.55997203406607,127.1857908767236
916,경기,하남황산사거리,경기도 하남시 조정대로 65 (풍산동),1522-3232,37.55078301,127.18603343
917,경기,스타필드위례1FR,경기도 하남시 위례대로 200 (학암동),1522-3232,37.48041,127.14814
918,경기,미사역효성,경기도 하남시 아리수로 570 (망월동),1522-3232,37.56724938447274,127.19030829457851
919,경기,하남덕풍,경기도 하남시 덕풍동로 123 (덕풍동),1522-3232,37.55215262070143,127.20928781667027
920,경기,하남미사,경기도 하남시 미사강변북로30번길 130 (망월동),1522-3232,37.56961189042407,127.1834150926398
921,경기,스타필드하남1F(티바나),경기도 하남시 미사대로 750 (신장동),1522-3232,37.54477874715479,127.2236041950884
922,경기,신세계하남2F,경기도 하남시 미사대로 750 (신장동),1522-3232,37.545993831702795,127.22188498102277
923,경기,스타필드하남2FR,경기도 하남시 미사대로 750 (신장동),1522-3232,37.545214483818086,127.22426181100775
924,경기,하남시청,경기도 하남시 대청로 34 (신장동),1522-3232,37.54058517543721,127.21603603472239
925,경기,하남시청역,경기도 하남시 하남대로 808 (신장동),1522-3232,37.5414173926204,127.20802671231
926,경기,하남풍산역,경기도 하남시 덕풍서로 80 (덕풍동) 빌리브하남 101~106호,1522-3232,37.55355158819783,127.20534208530016
927,경기,하남감일,"경기도 하남시 감일백제로 169 (감이동) 현대타워, 1층 105~111호",1522-3232,37.50741144793323,127.15510073391985
928,경기,미사역그랑파사쥬,경기도 하남시 미사강변동로 95 (망월동) 미사역 그랑파사쥬 1층 1056~1059호,1522-3232,37.56421331111887,127.19152864407452
929,경기,미사역파라곤스퀘어,"경기도 하남시 미사강변동로 100 (망월동), 미사역 파라곤스퀘어 1층 1011~1016호",1522-3232,37.56431706804952,127.19282489639798
930,경기,화성시청,경기도 화성시 남양읍 시청로 113,1522-3232,37.20087822769405,126.8260472922631
931,경기,화성봉담,경기도 화성시 봉담읍 동화길 51,1522-3232,37.2186558750552,126.95538618707329
932,경기,화성향남,경기도 화성시 향남읍 발안로 111,1522-3232,37.131572,126.922767
933,경기,동탄카림,"경기도 화성시 동탄대로시범길 134 (청계동, 시범 반도유보라 아이비파크4.0)",1522-3232,37.19921081770612,127.11294627624394
934,경기,동탄능동DT,경기도 화성시 동탄지성로 201 (능동),1522-3232,37.212139,127.053557
935,경기,동탄역,경기도 화성시 동탄대로 495 (오산동),1522-3232,37.19779562354546,127.0984027054538
936,경기,화성병점DT,경기도 화성시 효행로 1015 (진안동),1522-3232,37.212704,127.038292
937,경기,동탄영천,경기도 화성시 동탄순환대로 692 (영천동),1522-3232,37.2067360762558,127.11138038332655
938,경기,신영통DT,경기도 화성시 영통로 43 (반월동),1522-3232,37.234379,127.062955
939,경기,동탄센트럴파크,경기도 화성시 동탄지성로 104 센트럴파티오,1522-3232,37.2082443,127.0638898
940,경기,동탄,"경기도 화성시 메타폴리스로 54 (반송동, 동탄파라곤II) 1층",1522-3232,37.201742,127.072973
941,경기,동탄광장,"경기도 화성시 동탄지성로 17, 풍성 위버폴리스 (반송동)",1522-3232,37.205275,127.07186
942,경기,동탄이마트,"경기도 화성시 동탄중앙로 376, 동탄이마트 1층 (석우동)",1522-3232,37.21417,127.079398
943,경기,송산마도IC DT,"경기도 화성시 마도면 화성로 803 두곡리 312-4, 312-5",1522-3232,37.20721733691775,126.77769416965662
944,경기,동탄북광장,"경기도 화성시 동탄원천로 153 (반송동), 1층 일부",1522-3232,37.206887,127.074505
945,경기,동탄산단DT,경기도 화성시 동탄산단2길 7-36 (방교동),1522-3232,37.16444559525663,127.08653493054737
946,경기,동탄라크몽,경기도 화성시 동탄대로5길 21 (송동) 라크몽,1522-3232,37.16724647044769,127.10500600289995
947,경기,화성봉담2지구,경기도 화성시 봉담읍 상리2길 41,1522-3232,37.22345976347896,126.94756086840334
948,경기,화성남양DT,경기도 화성시 남양읍 시청로32번길 6,1522-3232,37.2069639382399,126.819198917853
949,경기,화성봉담DT,경기도 화성시 효행로 219 (기안동),1522-3232,37.22832461050121,126.97157862066765
950,경기,동탄목동,경기도 화성시 동탄순환대로20길 124 (목동),1522-3232,37.1825,127.12466
951,경기,화성반월DT,경기도 화성시 효행로 1241 (반월동),1522-3232,37.220273,127.058281
952,경기,동탄여울공원,경기도 화성시 동탄기흥로 447-30 (오산동),1522-3232,37.20125564665495,127.08991959567788
953,경기,화성보통저수지,경기도 화성시 정남면 세자로 293 단독 건물,1522-3232,37.1924950796762,126.9784870007
954,경기,삼성전자DSR,"경기도 화성시 삼성전자로 1 (반월동), DSR동 B-C타워 로비 1층",1522-3232,37.226129,127.070494
955,경기,동탄트레이더스,경기도 화성시 동탄대로 451 (오산동),1522-3232,37.19340616742762,127.09728759646569
956,경기,동탄신리천공원,경기도 화성시 동탄신리천로 264 (오산동),1522-3232,37.18381931548709,127.10731223960644
957,경기,화성향남DT,경기도 화성시 향남읍 삼천병마로 213,1522-3232,37.131948556839525,126.91000210775723
958,경기,송산그린시티,경기도 화성시 수노을중앙로 136 (새솔동),1522-3232,37.284793,126.818368
959,경기,동탄타임테라스,"경기도 화성시 동탄중앙로 220 (반송동, 메타폴리스)",1522-3232,37.204292,127.069308
960,경기,동탄IX타워,경기도 화성시 동탄첨단산업1로 27 (영천동) 동탄금강펜테리움IX타워 M8~M11호,1522-3232,37.21111373899295,127.08912861119589
961,경기,동탄역롯데R,경기도 화성시 동탄역로 160 롯데백화점 동탄점,1522-3232,37.199829040652936,127.09652425307661
962,경기,화성안녕DT,경기도 화성시 효행로 751 (안녕동),1522-3232,37.2026342484652,127.012915698922
963,경기,동탄디엠시티,"경기도 화성시 동탄대로 636-14 (영천동, 동탄역 대방디엠시티 더 센텀)",1522-3232,37.209675052899826,127.09951369757151
964,경기,화성향남2지구,"경기도 화성시 향남읍 발안양감로 187 발안양감로 187 센트럴프라자1동 108호,204호",1522-3232,37.1163585032065,126.91078567528949
965,경기,남양화성로DT,경기도 화성시 남양읍 화성로 1166 화성로 1166,1522-3232,37.21105630237535,126.81320358546414
966,경기,화성향남발안DT,경기도 화성시 향남읍 발안로 308,1522-3232,37.1334903068842,126.941212522437
967,경기,동탄호수공원,경기도 화성시 동탄대로 181 (송동),1522-3232,37.17215165644,127.10620071092708
968,경기,삼송역,경기도 고양시 덕양구 동송로 70 (삼송동),1522-3232,37.65226186576663,126.89623844379987
969,경기,원흥역,경기도 고양시 덕양구 원흥5로 25 (원흥동),1522-3232,37.64941846846435,126.87668693504605
970,경기,스타필드고양3F,경기도 고양시 덕양구 고양대로 1955 (동산동),1522-3232,37.647216,126.895577
971,경기,스타필드고양1FR,경기도 고양시 덕양구 고양대로 1955 (동산동),1522-3232,37.64697,126.895523
972,경기,고양삼송,경기도 고양시 덕양구 신원동 628-2,1522-3232,37.66367284776591,126.8912923843844
973,경기,고양DT,경기도 고양시 덕양구 호국로 1775 (고양동),1522-3232,37.7095394,126.90529470000001
974,경기,행신역,경기도 고양시 덕양구 충장로 14 (행신동),1522-3232,37.61411330095322,126.83433142731232
975,경기,원당DT,경기도 고양시 덕양구 호국로 811 (주교동),1522-3232,37.658155,126.837639
976,경기,화정,경기도 고양시 덕양구 화신로272번길 57 (화정동),1522-3232,37.63353224,126.8314538
977,경기,화정역,경기도 고양시 덕양구 화신로260번길 57 (화정동),1522-3232,37.633450960563216,126.83290635099
978,경기,고양덕은,경기도 고양시 덕양구 으뜸로 130 (덕은동),1522-3232,37.579508396875966,126.87023899255668
979,경기,고양행신,경기도 고양시 덕양구 충장로 126 (행신동),1522-3232,37.623815,126.834306
980,경기,고양원흥DT,경기도 고양시 덕양구 서오릉로663번길 8 (원흥동),1522-3232,37.636819,126.869261
981,경기,고양향동,경기도 고양시 덕양구 꽃마을로 4 (향동동),1522-3232,37.598841426922625,126.8926607166853
982,경기,지축역,경기도 고양시 덕양구 지축로 56 (지축동),1522-3232,37.649902287279666,126.91431004232291
983,경기,화정호국로,경기도 고양시 덕양구 화수로14번길 72 (화정동),1522-3232,37.641816368002175,126.82959613089208
984,경기,신흥역,경기도 성남시 수정구 산성대로 267 (신흥동),1522-3232,37.440935,127.146642
985,경기,성남위례,경기도 성남시 수정구 위례광장로 104 (창곡동),1522-3232,37.472839,127.141062
986,경기,성남이마트,경기도 성남시 수정구 수정로 201 (태평1동) 신세계쉐덴,1522-3232,37.4442471,127.14145710000002
987,경기,가천대학교,경기도 성남시 수정구 성남대로 1342 (복정동),1522-3232,37.44941,127.1272
988,경기,수진역,경기도 성남시 수정구 산성대로 223 (신흥동) 1층,1522-3232,37.4389903651714,127.14224989005
989,경기,성남태평,경기도 성남시 수정구 수정로 149 (태평동) 1~2층,1522-3232,37.442561275669,127.136588869764
990,경기,판교아이스퀘어,경기도 성남시 수정구 창업로 18(시흥동),1522-3232,37.41302843,127.098155483
991,경기,성남모란삼성,경기도 성남시 수정구 산성대로 81 (수진동),1522-3232,37.4339085932107,127.127859353725
992,경기,남위례역,경기도 성남시 수정구 위례광장로 9-9 (창곡동),1522-3232,37.4646,127.14142
993,경기,판교제2테크노밸리,경기도 성남시 수정구 창업로 54 (시흥동),1522-3232,37.41108510155048,127.09463155093412
994,경기,여주DT,경기도 여주시 세종로 358 (점봉동)_1,1522-3232,37.26613937,127.638535833
995,경기,여주P.아울렛입구,경기도 여주시 명품로 360 2004호 (상거동),1522-3232,37.24051058,127.611900111
996,경기,여주P.아울렛,경기도 여주시 명품로 360 2400호 (상거동),1522-3232,37.242436232,127.612394662
997,경기,여주프리미엄빌리지,경기도 여주시 명품1로 22-2 (상거동),1522-3232,37.2426426001696,127.615343156492
998,경기,여주남한강DT,경기도 여주시 강변북로 11 (천송동),1522-3232,37.3004139931102,127.648161642318
999,경기,여주자유CC,경기도 여주시 가남읍 자유그린길 69,1522-3232,37.2089834,127.5702741
1000,경기,서여주IC DT,경기도 여주시 세종대왕면 중부대로 2685 중부대로 2685,1522-3232,37.298135321397,127.602933616704
1001,경기,평택비전,경기도 평택시 비전5로 20-24 (비전동),1522-3232,36.99882806023261,127.11426413898152
1002,경기,평택서정DT,경기도 평택시 경기대로 1353 (서정동),1522-3232,37.066066,127.063519
1003,경기,평택안중DT,경기도 평택시 안중읍 서동대로 1459,1522-3232,36.99081604230166,126.91337572053996
1004,경기,평택로데오,경기도 평택시 중앙2로 13 (평택동),1522-3232,36.99183,127.0884
1005,경기,평택AK플라자,경기도 평택시 평택로 51 (평택동) 평택역,1522-3232,36.99189,127.085398
1006,경기,평택송탄,경기도 평택시 관광특구로 38 (서정동),1522-3232,37.06659128238811,127.06304394773583
1007,경기,평택독곡DT,경기도 평택시 경기대로 1600 (독곡동),1522-3232,37.08708158627897,127.06311996274557
1008,경기,평택이충DT,경기도 평택시 청원로 1388 (이충동),1522-3232,37.052009,127.077063
1009,경기,평택죽백DT,경기도 평택시 만세로 1707 (죽백동),1522-3232,37.013806597867,127.113461238319
1010,경기,평택청북DT,경기도 평택시 청북읍 안청로2길 86,1522-3232,37.0201732740776,126.915001051696
1011,경기,평택고덕에듀타운,경기도 평택시 고덕로 245 (고덕동),1522-3232,37.036367066190806,127.02738305260855
1012,경기,평택대DT,경기도 평택시 서동대로 3847 (용이동),1522-3232,36.9933627,127.1346334
1013,경기,평택고덕,경기도 평택시 고덕면 고덕여염9길 38,1522-3232,37.04023606708466,127.05118600287514
1014,경기,평택이마트,경기도 평택시 영신로 29 (지제동),1522-3232,37.020935196361826,127.07601087256849
1015,경기,평택세교DT,경기도 평택시 경기대로 625 (세교동),1522-3232,37.007340586669855,127.07879779759615
1016,경기,평택팽성DT,경기도 평택시 팽성읍 팽성로 221 경기도 평택시 팽성읍 팽성로 221,1522-3232,36.95483635792418,127.05995668670255
1017,경기,평택비전DT,경기도 평택시 비전4로 180 (비전동),1522-3232,37.011253841642144,127.10463089994097
1018,경기,주엽강선,"경기도 고양시 일산서구 중앙로 1371 (주엽동, 강선마을13단지아파트)",1522-3232,37.6663259773628,126.76678869014237
1019,경기,일산가로수길,경기도 고양시 일산서구 주엽로 80 (대화동),1522-3232,37.6657119408568,126.75717935238349
1020,경기,일산가구단지,경기도 고양시 일산서구 하이파크2로 67 (덕이동),1522-3232,37.69956957737873,126.75667208933966
1021,경기,일산덕이DT,경기도 고양시 일산서구 탄중로 106 (덕이동),1522-3232,37.691947341140334,126.7566743221291
1022,경기,일산후곡,경기도 고양시 일산서구 일산로 541 (일산동),1522-3232,37.6773867,126.76756990000001
1023,경기,더타운몰킨텍스,경기도 고양시 일산서구 킨텍스로 171,1522-3232,37.661728531012784,126.74388688856913
1024,경기,일산탄현제니스,경기도 고양시 일산서구 일현로 97-11 (일산위브더제니스스퀘어1동147~151),1522-3232,37.69416901003098,126.76369684646278
1025,경기,대화역,"경기도 고양시 일산서구 중앙로 1559, 시티타워 1~2층 (대화동)",1522-3232,37.6753761,126.7481894
1026,경기,일산주엽,"경기도 고양시 일산서구 중앙로 1420, 1층 (주엽동)",1522-3232,37.669903,126.762657
1027,경기,현대킨텍스,경기도 고양시 일산서구 호수로 817 (대화동),1522-3232,37.668128,126.751207
1028,경기,문촌사거리,경기도 고양시 일산서구 중앙로 1470 (주엽동),1522-3232,37.672648304725364,126.75661266760485
1029,경기,일산탄현동,경기도 고양시 일산서구 일현로 91 (탄현동),1522-3232,37.6951672,126.7644783
1030,경기,풍무역DT,경기도 김포시 김포대로 657 (풍무동),1522-3232,37.610369792,126.737528226
1031,경기,풍무사거리DT,경기도 김포시 풍무로 137,1522-3232,37.607844974,126.72283694
1032,경기,김포아이앤씨,경기도 김포시 태장로 779 (장기동),1522-3232,37.638769,126.680464
1033,경기,김포구래,"경기도 김포시 김포한강4로 487 (구래동, 한강신도시 반도유보라 4차)",1522-3232,37.645803,126.629073
1034,경기,김포장기커낼,"경기도 김포시 김포한강2로 41 (장기동, e편한세상 캐널시티)",1522-3232,37.63960023453895,126.67764807769912
1035,경기,김포감정DT,경기도 김포시 중봉로 27 (감정동),1522-3232,37.624786,126.696429
1036,경기,김포운양,경기도 김포시 김포한강11로 288-32,1522-3232,37.6543091,126.6841727
1037,경기,김포이마트,경기도 김포시 김포한강7로 71,1522-3232,37.644436737352,126.628229553273
1038,경기,김포풍무DT,경기도 김포시 풍무로 45 (풍무동),1522-3232,37.600112,126.720441
1039,경기,김포시청,경기도 김포시 사우중로 35 (사우동),1522-3232,37.618396,126.717912
1040,경기,김포장기,"경기도 김포시 김포한강4로 117, 홍우프라자 102~105호 (장기동)",1522-3232,37.644239,126.667908
1041,경기,김포통진DT,경기도 김포시 통진읍 김포대로 2026,1522-3232,37.682933887288634,126.61909971571191
1042,경기,김포현대아울렛3층,경기도 김포시 고촌읍 아라육로152번길 100,1522-3232,37.599328412,126.785580582
1043,경기,김포구래DT,경기도 김포시 양촌읍 봉수대로 1871,1522-3232,37.63477683875019,126.627616055273
1044,경기,김포석모DT,"경기도 김포시 양촌읍 김포한강4로301 1,2층",1522-3232,37.651278880898836,126.64987998921725
1045,경기,김포걸포,"경기도 김포시 걸포2로 83 (걸포동, 한강메트로자이1단지)",1522-3232,37.631846,126.702037
1046,경기,김포애기봉생태공원,경기도 김포시 월곶면 평화공원로 289,1522-3232,37.75543683447103,126.59539467459582
1047,경기,김포양촌역DT,"경기도 김포시 양촌읍 김포한강10로 236 구래리 259-1, 260, 262, 262-1 , 262-2, 260-6, 260-7",1522-3232,37.64763570182944,126.61973330343076
1048,경기,김포마산역,경기도 김포시 김포한강8로 172 (마산동),1522-3232,37.637468539944365,126.64441590603208
1049,경기,김포한강로DT,경기도 김포시 양촌읍 김포한강4로 257,1522-3232,37.65075236331756,126.65465311919966
1050,경기,부천상동역,경기도 부천시 원미구 길주로 105 (상동),1522-3232,37.50621,126.75427
1051,경기,스타필드부천,경기도 부천시 소사구 옥길로 1 (옥길동),1522-3232,37.461162409103956,126.8135100661429
1052,경기,부천옥길,경기도 부천시 소사구 옥길로 118 (옥길동),1522-3232,37.467655743678904,126.82331717690282
1053,경기,부천심곡DT,경기도 부천시 원미구 부천로 97 (심곡동),1522-3232,37.49302677958507,126.78450527950969
1054,경기,뉴코아부천,경기도 부천시 원미구 송내대로 239 (상동),1522-3232,37.504279,126.756992
1055,경기,중동이마트,경기도 부천시 원미구 석천로 188 (중동),1522-3232,37.50406453617466,126.76354523210646
1056,경기,부천중동DT,경기도 부천시 원미구 부흥로 193 (중동),1522-3232,37.4963743,126.76420000000007
1057,경기,부천신중동역,경기도 부천시 원미구 길주로 281 (중동),1522-3232,37.5037646,126.77414390000001
1058,경기,역곡역DT,경기도 부천시 소사구 경인로 485 (괴안동),1522-3232,37.4835239,126.8093104
1059,경기,부천중동,경기도 부천시 원미구 신흥로 161 (중동),1522-3232,37.497976,126.77702
1060,경기,부천시청역,경기도 부천시 원미구 길주로 181 (중동),1522-3232,37.50515528927381,126.7626907359831
1061,경기,현대중동,경기도 부천시 원미구 길주로 180 (중동),1522-3232,37.50451371486611,126.76065138080334
1062,경기,부천플레이도시,경기도 부천시 원미구 조마루로 2 (상동),1522-3232,37.50030232896319,126.74385119789906
1063,경기,송내역,경기도 부천시 원미구 부일로 204 (상동),1522-3232,37.488389,126.752604
1064,경기,부천상동,경기도 부천시 원미구 상동로 87 (상동),1522-3232,37.50535748795345,126.75255373808836
1065,경기,부천상일로,경기도 부천시 원미구 상일로 120 (상동),1522-3232,37.49123838780798,126.7556251093875
1066,경기,중동삼성,경기도 부천시 원미구 길주로 254 (중동),1522-3232,37.5031811685761,126.770616064676
1067,경기,부천역,경기도 부천시 소사구 부천로 1 (심곡본동),1522-3232,37.48417556967896,126.78268773567485
1068,경기,부천옥길DT,경기도 부천시 소사구 양지로 119 (옥길동),1522-3232,37.4720219,126.8160956
1069,경기,부천상동DT,경기도 부천시 원미구 평천로 611 (상동),1522-3232,37.5156818312932,126.758575497719
1070,경기,부천원종DT,경기도 부천시 오정구 소사로 826 (원종동),1522-3232,37.5297339526141,126.80545118712157
1071,경기,부천중동센트럴,"경기도 부천시 원미구 소향로 181 (중동, 센트럴파크 푸르지오)",1522-3232,37.501698,126.768647
1072,경기,춘의역DT,경기도 부천시 원미구 길주로 386 (춘의동),1522-3232,37.50308,126.78546
1073,경기,신중동,경기도 부천시 원미구 신흥로 187 (중동),1522-3232,37.5003106,126.7764634
1074,경기,소사역,"경기도 부천시 소사구 경인옛로 25 (소사본동, 부천 한신더휴 메트로)",1522-3232,37.48157573481657,126.79505290327361
1075,경기,광교갤러리아9F,경기도 수원시 영통구 광교호수공원로 320 (하동),1522-3232,37.285343464162516,127.05723519552484
1076,경기,수원법조타운,경기도 수원시 영통구 광교중앙로248번길 7-2 (하동),1522-3232,37.29184,127.067164
1077,경기,광교역,경기도 수원시 영통구 대학로 47 (이의동),1522-3232,37.30058563335636,127.04410102879643
1078,경기,광교엘포트R,경기도 수원시 영통구 광교중앙로 145 (이의동),1522-3232,37.2869954,127.05778150000003
1079,경기,영통R,경기도 수원시 영통구 덕영대로 1566 (영통동),1522-3232,37.2456050375822,127.062158661007
1080,경기,수원망포DT,경기도 수원시 영통구 덕영대로 1467,1522-3232,37.24582770000001,127.05133999999998
1081,경기,수원광교,경기도 수원시 영통구 센트럴타운로 85 (이의동) 광교c1호반베르디움,1522-3232,37.29026200648969,127.04976194305105
1082,경기,수원트레이더스,경기도 수원시 영통구 삼성로 2 트레이더스수원점 (신동),1522-3232,37.245803,127.047795
1083,경기,경희대국제캠퍼스,경기도 수원시 영통구 덕영대로 1695 (영통동),1522-3232,37.247951,127.076749
1084,경기,수원망포역,경기도 수원시 영통구 영통로 195 (망포동),1522-3232,37.2452115522263,127.056207367864
1085,경기,광교이마트,경기도 수원시 영통구 광교로 191(이의동),1522-3232,37.29661973601996,127.04754991685652
1086,경기,수원영통,"경기도 수원시 영통구 봉영로 1617, 훼미리타워 1층 (영통동)",1522-3232,37.2556084236876,127.074645342368
1087,경기,수원매탄,경기도 수원시 영통구 효원로 400 (매탄동),1522-3232,37.2580532633873,127.045423420223
1088,경기,광교갤러리아6F,경기도 수원시 영통구 광교중앙로 124 (하동),1522-3232,37.28539753464783,127.05721832132485
1089,경기,광교더샵레이크시티,경기도 수원시 영통구 광교호수공원로 20 (원천동),1522-3232,37.2709141105943,127.06016412494561
1090,경기,수원청명,경기도 수원시 영통구 청명로 88 (영통동),1522-3232,37.2546045588473,127.078292140309
1091,경기,광교SK뷰레이크41F,경기도 수원시 영통구 법조로 25 (하동),1522-3232,37.28749328769524,127.0600730093509
1092,경기,안산한양대,"경기도 안산시 상록구 성안길 82-3, B동 1층 (사동)",1522-3232,37.30076926817003,126.83815395983674
1093,경기,안산한대앞역,"경기도 안산시 상록구 광덕1로 379, 한남빌딩 1~2층 (이동)",1522-3232,37.30851298179862,126.85137186824745
1094,경기,안산삼성,"경기도 안산시 상록구 광덕1로 342 (이동), 1층 일부",1522-3232,37.306449509095856,126.8477466214952
1095,경기,경기양평,경기도 양평군 양평읍 시민로 75,1522-3232,37.491066224,127.499953233
1096,경기,더양평DT,경기도 양평군 양평읍 양근로 76,1522-3232,37.497005095,127.481752371
1097,경기,용인죽전,"경기도 용인시 수지구 용구대로 2750 (죽전동, 죽전 효성해링턴 플레이스)",1522-3232,37.3313521,127.1091828
1098,경기,죽전단국대,경기도 용인시 수지구 죽전로168번길 18 (죽전동),1522-3232,37.3244016,127.12494279999998
1099,경기,수지동천,경기도 용인시 수지구 손곡로,1522-3232,37.335988,127.09101
1100,경기,죽전,경기도 용인시 수지구 현암로 140 (죽전동),1522-3232,37.331506,127.12479
1101,경기,수지성복DT,경기도 용인시 수지구 성복2로 55 (성복동),1522-3232,37.314048,127.079162
1102,경기,광교중앙로,경기도 용인시 수지구 광교마을로 41 (상현동),1522-3232,37.29895843016633,127.06933919398742
1103,경기,스타필드마켓죽전,"경기도 용인시 수지구 포은대로 552, 스타필드마켓 죽전점 1층 (죽전동)",1522-3232,37.3253735,127.1099255
1104,경기,신세계사우스시티,경기도 용인시 수지구 포은대로 536 (죽전동) 3층,1522-3232,37.32500393,127.1081332
1105,경기,수지이마트,경기도 용인시 수지구 수지로 203 (신봉동),1522-3232,37.31965,127.083677
1106,경기,수지풍덕천,"경기도 용인시 수지구 수지로296번길 51-11, 비즈마루빌딩 1층 101호 (풍덕천동)",1522-3232,37.322169,127.0952655
1107,경기,용인고기동유원지,경기도 용인시 수지구 고기로 487 (고기동),1522-3232,37.359607,127.055438
1108,경기,수지구청역,"경기도 용인시 수지구 풍덕천로 119 (풍덕천동) 111,112,113,206,207호",1522-3232,37.323104564866,127.09488475046
1109,경기,수지성복역,경기도 용인시 수지구 성복2로 37 (성복동),1522-3232,37.3127961,127.0802009
1110,경기,파주P.아울렛1F,경기도 파주시 탄현면 필승로 200,1522-3232,37.769258,126.6947
1111,경기,파주야당역,경기도 파주시 경의로 1066,1522-3232,37.712142,126.759475
1112,경기,파주금촌역,경기도 파주시 문화로 109 (금촌동),1522-3232,37.764081,126.774205
1113,경기,파주금릉역,"경기도 파주시 금릉역로 84, 청원센트럴타워 1층 (금촌동)",1522-3232,37.752207,126.765613
1114,경기,파주운정,경기도 파주시 와석순환로 135,1522-3232,37.71203,126.744499
1115,경기,파주P.아울렛3F,경기도 파주시 탄현면 필승로 200 1312호,1522-3232,37.768974,126.69632
1116,경기,파주문산DT,경기도 파주시 파주읍 통일로 1555 (봉서리),1522-3232,37.8464380469309,126.789040084356
1117,경기,파주가람,경기도 파주시 가람로 89 (와동동),1522-3232,37.735972140257,126.759841042896
1118,경기,파주산내,경기도 파주시 청암로17번길 29 (목동동),1522-3232,37.728707,126.735514
1119,경기,파주교하,경기도 파주시 청석로 256 (동패동),1522-3232,37.7246852217901,126.717740601475
1120,경기,파주LGD,경기도 파주시 월롱면 엘지로 245 (상동),1522-3232,37.8098789765584,126.76770065141242
1121,경기,파주야당DT,경기도 파주시 경의로 966 (야당동),1522-3232,37.70346,126.75964
1122,경기,파주운정이마트,경기도 파주시 한울로 123 (동패동),1522-3232,37.710647,126.74545
1123,경기,지행역,경기도 동두천시 지행로 55 (지행동),1522-3232,37.89270418557808,127.05348152566178
1124,경기,동두천DT,경기도 동두천시 평화로 2254 (지행동),1522-3232,37.88905594799414,127.0570143986884
1125,경기,동두천송내DT,경기도 동두천시 평화로 2163 (송내동),1522-3232,37.880808446841186,127.05561559032506
1126,광주,광주운남DT,광주광역시 광산구 임방울대로 156 (운남동),1522-3232,35.175136,126.818062
1127,광주,광주선운DT,광주광역시 광산구 선운로 20번길 63,1522-3232,35.1468918132751,126.777527653198
1128,광주,광주산정DT,광주광역시 광산구 용아로 342 (산정동),1522-3232,35.173524,126.804191
1129,광주,광주흑석DT,광주광역시 광산구 사암로 367 (산정동),1522-3232,35.1769635314888,126.807928873416
1130,광주,광주송정역,광주광역시 광산구 상무대로205번길 6 (송정동),1522-3232,35.1380713043052,126.791425499249
1131,광주,광주수완DT,광주광역시 광산구 임방울대로 487 (수완동),1522-3232,35.2030951514752,126.819068502713
1132,광주,광주신가DT,광주광역시 광산구 목련로 335 (신가동),1522-3232,35.1790467,126.8301259
1133,광주,광주쌍암,광주광역시 광산구 첨단중앙로 158 (쌍암동),1522-3232,35.2193113953075,126.842304220026
1134,광주,광주장덕,광주광역시 광산구 장신로 85 (장덕동),1522-3232,35.191066862312,126.819243400822
1135,광주,광주하남,"광주광역시 광산구 사암로216번길 38-16, 1~2층 (우산동)",1522-3232,35.1625996806446,126.81032250012
1136,광주,광주첨단,광주광역시 광산구 첨단중앙로 104 (월계동),1522-3232,35.2147182718094,126.843466326152
1137,광주,광산수완,"광주광역시 광산구 장신로 134, 1~2층 (수완동)",1522-3232,35.1905205771604,126.8247180482
1138,광주,광주신창강변DT,광주광역시 광산구 북문대로 321 (신창동),1522-3232,35.188844789779,126.857649994301
1139,광주,광주첨단DT,광주광역시 광산구 첨단월봉로 84 (산월동),1522-3232,35.2062384857051,126.847734037212
1140,광주,광주비아DT,광주광역시 광산구 첨단과기로 81 (비아동),1522-3232,35.2232057,126.8348789
1141,광주,광주송정로,광주광역시 광산구 상무대로 202 (송정동),1522-3232,35.13714620828514,126.79167046372748
1142,광주,광주시리단길,"광주광역시 광산구 임방울대로826번길 29-12 (쌍암동) 101호, 102호, 103호, 104호",1522-3232,35.216064750383524,126.84975989378465
1143,광주,광주월산DT,광주광역시 남구 대남대로 386 (월산동),1522-3232,35.14561145257798,126.89083817211923
1144,광주,광주주월DT,광주광역시 남구 회재로 1256 (주월동),1522-3232,35.134253849378254,126.89809502958025
1145,광주,광주효천DT,광주광역시 남구 임암길 232 (임암동),1522-3232,35.09994272781475,126.87134921870485
1146,광주,광주봉선로,광주광역시 남구 제석로 104 (봉선동),1522-3232,35.124262,126.907898
1147,광주,광주서문대로,광주광역시 남구 서문대로 665 (진월동),1522-3232,35.119448,126.898595
1148,광주,광주방림DT,광주광역시 남구 대남대로 67 (방림동),1522-3232,35.13505736028861,126.91758096869976
1149,광주,광주봉선중앙,광주광역시 남구 봉선중앙로 51 (봉선동),1522-3232,35.1254197,126.9112507
1150,광주,광주진월,광주광역시 남구 서문대로 745 (주월동),1522-3232,35.125781,126.897221
1151,광주,광주봉선,"광주광역시 남구 봉선로 176, 1층 101,111호 (봉선동)",1522-3232,35.12294287435785,126.91411270233776
1152,광주,봉선이마트,광주광역시 남구 봉선로 198 (봉선동),1522-3232,35.1224129503302,126.916025777436
1153,광주,광주지산DT,광주광역시 동구 필문대로 240 (동명동),1522-3232,35.149728,126.929070
1154,광주,광주동명,광주광역시 동구 동명로 16 (동명동),1522-3232,35.150362,126.9236181
1155,광주,광주지원DT,광주광역시 동구 남문로 529 (용산동),1522-3232,35.1185225125972,126.9333452904421
1156,광주,광주지산유원지입구,광주광역시 동구 무등로 592 (산수동),1522-3232,35.154459,126.940912
1157,광주,광주황금,광주광역시 동구 중앙로160번길 14 (황금동),1522-3232,35.1473572,126.9145683
1158,광주,충장서림,"광주광역시 동구 충장로 93-5 (금남로2가, 무등맨션)",1522-3232,35.14808817,126.9173077
1159,광주,충장일가,광주광역시 동구 서석로 43 (충장로1가),1522-3232,35.146797,126.918252
1160,광주,조선대,광주광역시 동구 지산로 3 (서석동),1522-3232,35.144608,126.930183
1161,광주,조선대국제관,광주광역시 동구 조선대5길 9 (서석동),1522-3232,35.14268276554809,126.93189905789138
1162,광주,광주충장DT,광주광역시 동구 천변우로 421 (불로동),1522-3232,35.144342,126.9149709
1163,광주,광주오치,광주광역시 북구 설죽로 314 (오치동),1522-3232,35.187452736868266,126.89890250470112
1164,광주,광주연제DT,광주광역시 북구 양일로18번길 2 (연제동),1522-3232,35.197688,126.866803
1165,광주,광주신안DT,광주광역시 북구 서암대로 93 (신안동),1522-3232,35.171678,126.894998
1166,광주,광주매곡DT,광주광역시 북구 설죽로 339 (매곡동),1522-3232,35.189836,126.898698
1167,광주,광주두암타운,광주광역시 북구 삼정로 4 (두암동),1522-3232,35.162112,126.937388
1168,광주,광주일곡,광주광역시 북구 설죽로 518 (일곡동),1522-3232,35.205463,126.898114
1169,광주,광주북구청,광주광역시 북구 서방로9번길 30 (중흥동),1522-3232,35.17483,126.914469
1170,광주,광주첨단신용,광주광역시 북구 첨단연신로 101 (신용동),1522-3232,35.20701,126.864115
1171,광주,광주용두DT,광주광역시 북구 임방울대로 1016 (신용동),1522-3232,35.212837,126.868485
1172,광주,전남대,"광주광역시 북구 우치로 110, 1,2,3층 (용봉동)",1522-3232,35.17719867,126.9124787
1173,광주,광주용봉,광주광역시 북구 저불로 45 (용봉동),1522-3232,35.178664,126.895196
1174,광주,광주각화DT,광주광역시 북구 동문대로 303 (문흥동),1522-3232,35.1886443441194,126.93359912845
1175,광주,동광주DT,광주광역시 북구 동문대로 148 (두암동),1522-3232,35.175874,126.927584
1176,광주,광주양산DT,광주광역시 북구 하서로 380 (양산동),1522-3232,35.208888,126.87419
1177,광주,광주신세계DT,광주광역시 서구 죽봉대로 33 (화정동),1522-3232,35.156282894754526,126.8828860890317
1178,광주,광주상무DT,광주광역시 서구 상무대로 847 (쌍촌동),1522-3232,35.14993173,126.85482276
1179,광주,광주화정DT,광주광역시 서구 상무대로 1080,1522-3232,35.152205,126.879997
1180,광주,광주상무중앙로,광주광역시 서구 상무중앙로 46 (치평동) 1층,1522-3232,35.151021,126.848815
1181,광주,광주상무시민로,광주광역시 서구 운천로 253 (치평동) 103호,1522-3232,35.154963,126.854437
1182,광주,광주풍암,광주광역시 서구 풍암2로 8 (풍암동) 한아름빌딩,1522-3232,35.1268447,126.8796486
1183,광주,광주금호DT,광주광역시 서구 운천로109번길 1 (쌍촌동),1522-3232,35.1421126,126.85766460000002
1184,광주,광주상무대교,"광주광역시 서구 상무중앙로 90, 눈높이상무센터 1층 (치평동)",1522-3232,35.1551,126.848788
1185,광주,광주동림,"광주광역시 서구 하남대로 672-1, 1층 (동천동)",1522-3232,35.171734,126.86618
1186,광주,상무치평,"광주광역시 서구 상무자유로 173, 1층 (치평동)",1522-3232,35.151968,126.853423
1187,광주,상무역,"광주광역시 서구 상무중앙로 7, 1층 (치평동)",1522-3232,35.1475664524442,126.84811358436447
1188,광주,신세계광주신관B1,"광주광역시 서구 죽봉대로 61, 패션스트리트 B01호 (화정동)",1522-3232,35.158806,126.882069
1189,광주,광주풍암호수공원,광주광역시 서구 회재로 970 (풍암동),1522-3232,35.1252752078873,126.869198235695
1190,광주,서광주DT,광주광역시 서구 서광주로 23 (매월동),1522-3232,35.129468,126.847401
1191,광주,광주염주,광주광역시 서구 월드컵4강로 56 (화정동),1522-3232,35.142071401469,126.875287018219
1192,광주,광주광천,광주광역시 서구 죽봉대로 66 (농성동),1522-3232,35.159037105,126.883463848
1193,대구,대구영대병원역DT,대구광역시 남구 봉덕로 25 (봉덕동),1522-3232,35.845522,128.593536
1194,대구,대구앞산DT,대구광역시 남구 현충로 32 (대명동),1522-3232,35.835516,128.579871
1195,대구,영남대학교의료원영의관,대구광역시 남구 현충로 170 (대명동),1522-3232,35.84594789200674,128.58521684051493
1196,대구,대구가톨릭대학교병원,대구광역시 남구 두류공원로17길 33 (대명동),1522-3232,35.84339006877753,128.56742153199514
1197,대구,영남대학교의료원,대구광역시 남구 현충로 170 (대명동),1522-3232,35.8473627403431,128.585110856193
1198,대구,대구앞산스카이타운,대구광역시 남구 앞산순환로 375 (대명동),1522-3232,35.8323609810316,128.566888601875
1199,대구,계명대동산병원,대구광역시 달서구 달구벌대로 1035 (신당동),1522-3232,35.853811,128.480276
1200,대구,대구죽전역,대구광역시 달서구 와룡로 169,1522-3232,35.8487448364573,128.536579252122
1201,대구,대구월곡DT,대구광역시 달서구 월곡로 225 (상인동),1522-3232,35.814866,128.541057
1202,대구,대구광장,대구광역시 달서구 달구벌대로 1710 (두류동),1522-3232,35.855770,128.552811
1203,대구,대구월촌역,대구광역시 달서구 월배로 315 (송현동),1522-3232,35.824025,128.545226
1204,대구,대구진천역,대구광역시 달서구 월배로 91 (진천동),1522-3232,35.814395,128.524377
1205,대구,대구도원DT,대구광역시 달서구 상화로 314 (도원동),1522-3232,35.807812417,128.548116483
1206,대구,대구월성,대구광역시 달서구 조암로 41 (월성동),1522-3232,35.824320,128.525727
1207,대구,대구수목원,대구광역시 달서구 화암로 379,1522-3232,35.807252081,128.520264479
1208,대구,대구성서IC DT,대구광역시 달서구 달구벌대로 1393,1522-3232,35.8507998,128.52026039999998
1209,대구,대구감삼DT,대구광역시 달서구 와룡로 131,1522-3232,35.8443842,128.5366553
1210,대구,대구상인역,대구광역시 달서구 월배로 210 (상인동),1522-3232,35.8182768,128.53656920000003
1211,대구,대구두류DT,대구광역시 달서구 달구벌대로 1798 (두류동),1522-3232,35.85894914827019,128.56183032940754
1212,대구,대구상인DT,대구광역시 달서구 월곡로 334 (상인동),1522-3232,35.8227353989327,128.533730264967
1213,대구,대구계명대,대구광역시 달서구 계대동문로 13 (신당동),1522-3232,35.85567272,128.4937254
1214,대구,대구성서,"대구광역시 달서구 이곡공원로 26, 이곡메디컬빌딩 (이곡동)",1522-3232,35.855292,128.510127
1215,대구,대구서부정류장역,대구광역시 달서구 구마로 265 (성당동),1522-3232,35.837881,128.556926
1216,대구,대구이월드,대구광역시 달서구 두류공원로 200 (두류동),1522-3232,35.8540248,128.5634167
1217,대구,대구대천,대구광역시 달서구 조암남로32길 2 (대천동),1522-3232,35.8172418265049,128.517839365084
1218,대구,대구감삼빌리브스카이,"대구광역시 달서구 와룡로 186 (감삼동, 빌리브 스카이 주상복합)",1522-3232,35.8494020127818,128.537990459441
1219,대구,대구월성네거리,대구광역시 달서구 조암로 5 (월성동),1522-3232,35.825419,128.529254
1220,대구,신세계대구3F(티바나),대구광역시 동구 동부로 149 신세계백화점 대구점 3층,1522-3232,35.877767,128.628498
1221,대구,신세계대구8FR,대구광역시 동구 동부로 149 신세계백화점 대구점 8층,1522-3232,35.877812,128.628453
1222,대구,동대구로DT,대구광역시 동구 동대구로 422 (신천동),1522-3232,35.8680868,128.62715890000004
1223,대구,대구팔공산,대구광역시 동구 파계로 650,1522-3232,35.9878685,128.636347
1224,대구,대구봉무,대구광역시 동구 팔공로51길 15-11 (봉무동),1522-3232,35.921942,128.639708
1225,대구,동대구터미널,대구광역시 동구 동부로30길 12 (신천동),1522-3232,35.87627938661981,128.62873447909175
1226,대구,대구동촌유원지,대구광역시 동구 효동로2길 45 (효목동),1522-3232,35.88011,128.653159
1227,대구,반야월이마트,"대구광역시 동구 안심로 389-2, 이마트 1층 (신서동)",1522-3232,35.870899,128.727397
1228,대구,대구방촌DT,대구광역시 동구 화랑로 389 (방촌동),1522-3232,35.8773584999377,128.666495317362
1229,대구,대구신천DT,대구광역시 동구 동부로 78 (신천동),1522-3232,35.874882147,128.621110434
1230,대구,대구팔공로DT,대구광역시 동구 팔공로 332 (봉무동),1522-3232,35.9284602,128.6418299
1231,대구,대구율하,대구광역시 동구 안심로16길 47 (율하동),1522-3232,35.8635367,128.6939265
1232,대구,대구각산역DT,대구광역시 동구 안심로 383,1522-3232,35.868908,128.7261214
1233,대구,대구연경DT,대구광역시 동구 동화천로 391 (지묘동),1522-3232,35.942906865,128.630979003
1234,대구,대구파티마병원,대구광역시 동구 아양로 99 (신암동),1522-3232,35.8842695736665,128.624344515223
1235,대구,대구평리DT,대구광역시 서구 서대구로 89 (평리1동),1522-3232,35.8659449872571,128.555319851164
1236,대구,대구두류역,대구광역시 서구 달구벌대로 1749 (내당동),1522-3232,35.8578944050804,128.556313472538
1237,대구,대구수성도서관DT,대구광역시 수성구 화랑로 112 (만촌동),1522-3232,35.872886,128.638935
1238,대구,대구그랜드호텔R,대구광역시 수성구 동대구로 305 (범어동),1522-3232,35.857762109,128.625325193
1239,대구,국립대구박물관DT,대구광역시 수성구 청호로 318 (황금동),1522-3232,35.845491,128.639059
1240,대구,대구수성네거리DT,대구광역시 수성구 들안로 342 (수성동4가),1522-3232,35.86058,128.617977
1241,대구,대구중동DT,대구광역시 수성구 수성로 243 (중동),1522-3232,35.847384,128.612529
1242,대구,대구중동네거리DT,대구광역시 수성구 청수로 51 (중동),1522-3232,35.840917,128.613963
1243,대구,대구상동DT,대구광역시 수성구 무학로 29(상동),1522-3232,35.8296424,128.6116932
1244,대구,대구황금DT,대구광역시 수성구 청수로 164 (지산동),1522-3232,35.839069,128.625797
1245,대구,대구삼성화재,대구광역시 수성구 동대구로 401 (범어동) 삼성화재사옥,1522-3232,35.86609597321095,128.62628141735826
1246,대구,대구시지,대구광역시 수성구 달구벌대로 3216 (신매동),1522-3232,35.8394934,128.7080427
